Number,Volcano Name,Country,Region,Latitude,Longitude,Elev,Type,Status,Last Known
0803-001,Abu,Japan,Honshu-Japan,34.5,131.6,571,Shield volcano,Holocene,Unknown
1505-096,Acamarachi,Chile,Chile-N,-23.3,-67.62,6046,Stratovolcano,Holocene,Unknown
1402-08=,Acatenango,Guatemala,Guatemala,14.501,-90.876,3976,Stratovolcano,Historical,D1
0103-004,Acigol-Nevsehir,Turkey,Turkey,38.57,34.52,1689,Maar,Holocene,U
1201-04-,Adams,United States,US-Washington,46.206,-121.49,3742,Stratovolcano,Tephrochronology,D6
0803-17=,Adatara,Japan,Honshu-Japan,37.62,140.28,1718,Stratovolcano,Historical,D1
0201-17=,Adwa,Ethiopia,Africa-NE,10.07,40.84,1733,Stratovolcano,Holocene,U
0201-11=,Afdera,Ethiopia,Africa-NE,13.08,40.85,1295,Stratovolcano,Holocene,Unknown
0104-07-,Agmagan-Karadag,Armenia,Armenia,40.275,44.75,3560,Volcanic field,Holocene,U
0804-16=,Agrigan,United States,Mariana Is-C Pacific,18.77,145.67,965,Stratovolcano,Historical,D2
1402-10=,Agua,Guatemala,Guatemala,14.465,-90.743,3760,Stratovolcano,Holocene,U
1802-09=,Agua de Pau,Portugal,Azores,37.77,-25.47,947,Stratovolcano,Historical,D5
1508-062,Aguilera,Chile,Chile-S,-50.17,-73.83,0,Stratovolcano,Radiocarbon,D7
0604-02=,Agung,Indonesia,Lesser Sunda Is,-8.342,115.508,3142,Stratovolcano,Historical,D1
0804-141,Ahyi,United States,Mariana Is-C Pacific,20.42,145.03,-137,Submarine volcano,Uncertain,U
1000-125,Akademia Nauk,Russia,Kamchatka,53.983,159.45,1180,Stratovolcanoes,Historical,D2
1000-123,Akademia Nauk,Russia,Kamchatka,53.98,159.45,1180,Stratovolcano,Historical,D1
0803-13=,Akagi,Japan,Honshu-Japan,36.53,139.18,1828,Stratovolcano,Historical,D6
0805-07=,Akan,Japan,Hokkaido-Japan,43.38,144.02,1499,Caldera,Historical,D1
1000-32-,Akhtang,Russia,Kamchatka,55.43,158.65,1956,Shield volcano,Holocene,U
0803-23=,Akita-Komaga-take,Japan,Honshu-Japan,39.75,140.8,1637,Stratovolcano,Historical,D1
0803-26=,Akita-Yake-yama,Japan,Honshu-Japan,39.97,140.77,1366,Complex volcano,Historical,D1
0802-021,Akuseki-jima,Japan,Ryukyu Is,29.45,129.6,586,Stratovolcano,Holocene,U
0802-022,Akuseki-jima,Japan,Ryukyu Is,29.461,129.597,584,Stratovolcanoes,Holocene?,?
1101-32-,Akutan,United States,Aleutian Is,54.13,-165.97,1303,Stratovolcano,Historical,D1
0900-39=,Alaid,Russia,Kuril Is,50.858,155.55,2339,Stratovolcano,Historical,D1
0804-18=,Alamagan,United States,Mariana Is-C Pacific,17.6,145.83,744,Stratovolcano,Radiocarbon,D6
0201-112,Alayta,Ethiopia,Africa-NE,12.88,40.57,1501,Shield volcano,Historical,D2
0101-004,"Albano, Monte",Italy,Italy,41.73,12.7,949,Caldera,Holocene,Unknown
1503-04=,"Alcedo, Volcan",Ecuador,Galapagos,-0.43,-91.12,1130,Shield volcano,Historical,D1
0201-09=,Ale Bagu,Ethiopia,Africa-NE,13.52,40.63,1031,Stratovolcano,Holocene,U
0201-04=,Alid,Eritrea,Africa-NE,14.88,39.92,904,Stratovolcano,Holocene,U
1200-02-,Alligator Lake,Canada,Canada,60.42,-135.42,2217,Volcanic field,Holocene,U
1402-04=,Almolonga,Guatemala,Guatemala,14.82,-91.48,3197,Stratovolcano,Historical,D3
1000-45-,Alney-Chashakondzha,Russia,Kamchatka,56.7,159.65,2598,Stratovolcano,Holocene,U
1000-60-,Alngey,Russia,Kamchatka,57.7,160.4,1853,Stratovolcano,Holocene,U
0201-06=,Alu,Ethiopia,Africa-NE,13.82,40.55,429,Fissure vent,Holocene,U
0201-27-,Alutu,Ethiopia,Africa-NE,7.77,38.78,2335,Stratovolcano,Holocene,U
1101-39-,Amak,United States,Aleutian Is,55.42,-163.15,513,Stratovolcano,Historical,D4
0608-072,Amasing,Indonesia,Halmahera-Indonesia,-0.55,127.5,1030,Stratovolcano,Holocene,U
0703-088,Ambalatungan Group,Philippines,Luzon-Philippines,17.32,121.1,2329,Compound volcano,Fumarolic,U
0606-02=,Ambang,Indonesia,Sulawesi-Indonesia,0.75,124.42,1795,Complex volcano,Historical,D3
0504-02=,Ambitle,Papua New Guinea,New Ireland-SW Pacif,-4.08,153.65,450,Stratovolcano,Radiocarbon,D7
1203-20-,Amboy,United States,US-California,34.55,-115.78,288,Cinder cone,Holocene,U
0303-011,Ambre-Bobaomby,Madagascar,Madagascar,-12.48,49.1,1475,Volcanic field,Holocene,U
0507-04=,Ambrym,Vanuatu,Vanuatu-SW Pacific,-16.25,168.12,1334,Pyroclastic shield,Historical,D1
0703-085,Amorong,Philippines,Luzon-Philippines,15.828,120.805,376,Unknown,Fumarolic,U
0304-001,Amsterdam Island,Indian Ocean,Indian O-S,-37.83,77.52,881,Stratovolcano,Holocene,U
1101-19-,Amukta,United States,Aleutian Is,52.5,-171.25,1066,Stratovolcano,Historical,D1
0804-20=,Anatahan,United States,Mariana Is-C Pacific,16.35,145.67,788,Stratovolcano,Holocene,U
1000-39-,Anaun,Russia,Kamchatka,56.32,158.83,1828,Stratovolcano,Holocene,U
1504-002,Andahua Valley,Peru,Peru,-15.42,-72.33,4713,Cinder cone,Holocene,U
1900-023,Andrus,Antarctica,Antarctica,-75.8,-132.33,2978,Shield volcano,Holocene,Unknown
0507-11-,Aneityum,Vanuatu,Vanuatu-SW Pacific,-20.2,169.83,852,Stratovolcano,Holocene,Unknown
1102-09-,Aniakchak,United States,Alaska Peninsula,56.88,-158.17,1341,Caldera,Historical,D2
0303-013,Ankaizina Field,Madagascar,Madagascar,-14.3,48.67,2878,Cinder cone,Holocene,U
0303-015,Ankaratra Field,Madagascar,Madagascar,-19.4,47.2,2644,Cinder cone,Holocene,U
1507-153,Antillanca Group,Chile,Chile-C,-40.771,-72.153,1990,Stratovolcano,Holocene,U
1305-01-,Antipodes Island,New Zealand,Pacific-S,-49.683,178.767,402,Pyroclastic cones,Holocene?,?
1502-03=,Antisana,Ecuador,Ecuador,-0.481,-78.141,5753,Stratovolcano,Historical,D3
1505-124,Antofagasta de la Sierra,Argentina,Argentina,-26.08,-67.5,4000,Scoria cone,Holocene,U
1505-18-,Antofagasta de la Sierra,Argentina,Argentina,-26.083,-67.5,4000,Scoria cones,Holocene,U
1505-123,Antofalla,Argentina,Argentina,-25.53,-68,6100,Stratovolcano,Holocene,U
1507-08=,Antuco,Chile,Chile-C,-37.406,-71.349,2979,Stratovolcano,Historical,D3
0507-03=,Aoba,Vanuatu,Vanuatu-SW Pacific,-15.4,167.83,1496,Shield volcano,Historical,D1
0804-06=,Aoga-shima,Japan,Izu Is-Japan,32.45,139.77,423,Stratovolcano,Historical,D4
1403-01=,Apaneca Range,El Salvador,El Salvador,13.891,-89.786,2036,Stratovolcano,Holocene,U
1403-071,Apastepeque Field,El Salvador,El Salvador,13.72,-88.77,700,Volcanic field,Holocene,U
0701-03=,Apo,Philippines,Mindanao-Philippines,6.987,125.273,2954,Stratovolcano,Fumarolic,U
1404-091,Apoyeque,Nicaragua,Nicaragua,12.242,-86.342,518,Pyroclastic shield,Radiocarbon,D7
1505-107,Aracar,Argentina,Argentina,-24.27,-67.77,6082,Stratovolcano,Historical,D1
1505-16-,Aracar,Argentina,Argentina,-24.25,-67.767,6082,Stratovolcano,Uncertain,?
0104-06-,Aragats,Armenia,Armenia,40.55,44.12,4090,Stratovolcano,Holocene,U
1403-101,"Aramuaca, Laguna",El Salvador,El Salvador,13.428,-88.105,180,Maar,Holocene,U
0103-04-,Ararat,Turkey,Turkey,39.7,44.28,5165,Stratovolcano,Holocene,U
0703-084,Arayat,Philippines,Luzon-Philippines,15.2,120.742,1026,Stratovolcano,Holocene,U
0201-126,Ardoukoba,Djibouti,Africa-NE,11.58,42.47,298,Fissure vent,Historical,D1
1405-033,Arenal,Costa Rica,Costa Rica,10.463,-84.703,1657,Stratovolcano,Historical,D1
1508-059,Arenales,Chile,Chile-S,-47.2,-73.483,3437,Stratovolcano,Historical,D2
0301-09-,"Arhab, Harra of",Yemen,Arabia-S,15.63,44.08,3100,Volcanic field,Historical,D6
0603-29=,Arjuno-Welirang,Indonesia,Java,-7.725,112.58,3339,Stratovolcano,Historical,D2
1005-011,Arshan,China,China-E,47.5,120.7,,Cinder cones,Radiocarbon,D
0803-11=,Asama,Japan,Honshu-Japan,36.4,138.53,2560,Complex volcano,Historical,D1
0201-104,Asavyo,Ethiopia,Africa-NE,13.07,41.6,1200,Shield volcano,Holocene,U
1805-05-,Ascension,Atlantic Ocean,Atlantic-S,-7.95,-14.37,858,Stratovolcano,Holocene,U
1703-06=,Askja,Iceland,Iceland-NE,65.03,-16.75,1516,Stratovolcano,Historical,D2
0802-11=,Aso,Japan,Kyushu-Japan,32.88,131.1,1592,Caldera,Historical,D1
0201-125,Assab Volc Field,Eritrea,Africa-NE,12.95,42.43,987,Volcanic field,Holocene,U
0804-15=,Asuncion,United States,Mariana Is-C Pacific,19.67,145.4,857,Stratovolcano,Historical,D2
1502-021,Atacazo,Ecuador,Ecuador,-0.353,-78.617,4463,Stratovolcano,Radiocarbon,D7
0205-005,Atakor Volc Field,Algeria,Africa-N,23.333,5.833,2918,Scoria cones,Holocene,U
1402-06=,Atitlan,Guatemala,Guatemala,14.583,-91.186,3535,Stratovolcano,Historical,D3
1101-16-,Atka,United States,Aleutian Is,52.38,-174.15,1533,Stratovolcano,Historical,D1
1000-65-,Atlasova,Russia,Kamchatka,57.97,160.65,1764,Shield volcano,Holocene,U
1401-094,"Atlixcos, Cerro Los",Mexico,Mexico,19.809,-96.526,800,Shield volcano,Holocene,U
0900-05=,Atsonupuri,Russia,Kuril Is,44.804,147.13,1205,Stratovolcano,Historical,D2
1507-023,"Atuel, Caldera del",Argentina,Argentina,-34.65,-70.05,5189,Caldera,Holocene,U
0401-02=,Auckland Field,New Zealand,New Zealand,-36.9,174.87,260,Volcanic field,Radiocarbon,D6
1103-01-,Augustine,United States,Alaska-SW,59.37,-153.42,1252,Lava dome,Historical,D1
1000-10=,Avachinsky,Russia,Kamchatka,53.255,158.83,2741,Stratovolcano,Historical,D1
0607-04=,Awu,Indonesia,Sangihe Is-Indonesia,3.67,125.5,1320,Stratovolcano,Historical,D1
1301-011,Axial Seamount,Pacific Ocean,Pacific-NE,45.95,-130,-1500,Submarine volcano,Historical,D1
0201-16=,Ayelu,Ethiopia,Africa-NE,10.082,40.702,2145,Stratovolcano,Holocene,U
1501-09=,"Azufral, Volcan",Colombia,Colombia,1.08,-77.68,4070,Stratovolcano,Radiocarbon,D7
1503-06=,"Azul, Cerro",Ecuador,Galapagos,-0.9,-91.42,1690,Shield volcano,Historical,D1
1507-06=,"Azul, Cerro [Quizapu]",Chile,Chile-C,-35.653,-70.761,3788,Stratovolcano,Historical,D1
1404-14-,"Azul, Volcan",Nicaragua,Nicaragua,12.53,-83.87,201,Cinder cone,Holocene,U
0803-18=,Azuma,Japan,Honshu-Japan,37.73,140.25,2024,Stratovolcano,Historical,D1
0704-03=,Babuyan Claro,Philippines,Luzon-N of,19.523,121.94,1180,Stratovolcano,Historical,D2
1202-09-,Bachelor,United States,US-Oregon,43.979,-121.688,2763,Stratovolcano,Tephrochronology,D7
0505-02=,Bagana,Papua New Guinea,Bougainville-SW Paci,-6.14,155.195,1750,Lava cone,Historical,D1
1000-122,Bakenin,Russia,Kamchatka,53.905,158.07,2278,Stratovolcano,Tephrochronology,D7
1201-01=,Baker,United States,US-Washington,48.786,-121.82,3285,Stratovolcano,Historical,D3
0301-17-,"Bal Haf, Harra of",Yemen,Arabia-S,14.05,48.33,233,Volcanic field,Holocene,U
0701-072,Balatocan,Philippines,Mindanao-Philippines,8.8,124.92,2450,Compound volcano,Fumarolic,U
0505-01=,Balbi,Papua New Guinea,Bougainville-SW Paci,-5.83,154.98,2715,Stratovolcano,Holocene,U
1207-03-,Bald Knoll,United States,US-Utah,37.328,-112.408,2135,Cinder cone,Holocene,Unknown
0500-02-,Baluan,United States,Admiralty Is-SW Paci,-2.57,147.28,254,Stratovolcano,Holocene,U
0603-351,Baluran,Indonesia,Java,-7.85,114.37,1247,Stratovolcano,Holocene,Unknown
0701-01=,Balut,Philippines,Mindanao-Philippines,5.4,125.375,852,Stratovolcano,Holocene,U
0501-01=,Bam,Papua New Guinea,New Guinea-NE of,-3.6,144.85,685,Stratovolcano,Historical,D2
0502-11=,Bamus,Papua New Guinea,New Britain-SW Pac,-5.2,151.23,2248,Stratovolcano,Anthropology,D3
0703-05=,Banahao,Philippines,Luzon-Philippines,14.07,121.48,2158,Complex volcano,Holocene,U
0605-09=,Banda Api,Pacific Ocean,Banda Sea,-4.525,129.871,640,Caldera,Historical,D1
0803-16=,Bandai,Japan,Honshu-Japan,37.6,140.08,1819,Stratovolcano,Historical,D3
0607-03=,Banua Wuhu,Indonesia,Sangihe Is-Indonesia,3.138,125.491,-5,Submarine volcano,Historical,D2
0900-08=,Baransky,Russia,Kuril Is,45.1,148.02,1132,Stratovolcano,Historical,D2
1401-02=,Barcena,Mexico,Mexico-Is,19.3,-110.82,332,Cinder cone,Historical,D2
1703-03=,Bardarbunga,Iceland,Iceland-NE,64.63,-17.53,2000,Stratovolcano,Historical,D2
1000-084,Barkhatnaya Sopka,Russia,Kamchatka,52.823,158.27,870,Lava dome,Tephrochronology,D7
0600-01=,Barren Island,India,Andaman Is-Indian O,12.292,93.875,354,Stratovolcano,Historical,D1
0202-03=,"Barrier, The",Kenya,Africa-E,2.32,36.57,1032,Shield volcano,Historical,D2
1406-01-,Baru,Panama,Panama,8.8,-82.558,3477,Complex volcano,Historical,D5
1405-05=,Barva,Costa Rica,Costa Rica,10.135,-84.1,2906,Complex volcano,Tephrochronology,D7
0705-05-,Bas Dong Nai,Vietnam,SE Asia,10.8,107.2,392,Volcanic field,Holocene,Unknown
0604-01=,Batur,Indonesia,Lesser Sunda Is,-8.242,115.375,1717,Caldera,Historical,D1
1505-122,"Bayo, Cerro",Argentina,Chile-N,-25.42,-68.58,5401,Complex volcano,Holocene,U
0804-07=,Bayonnaise Rocks,Japan,Izu Is-Japan,31.92,139.92,10,Submarine volcano,Historical,D1
0205-06-,Bayuda Volc Field,Sudan,Africa-N,18.33,32.75,0,Cinder cone,Radiocarbon,D6
0302-03-,Bazman,Iran,Iran,28.07,60,3490,Stratovolcano,Fumarolic,U
1105-07-,Behm Canal-Rudyerd Bay,United States,Alaska-SE,55.32,-131.05,500,Cinder cone,Holocene,Unknown
1000-042,Belenkaya,Russia,Kamchatka,51.75,157.27,892,Stratovolcano,Holocene,U
0601-20=,Belirang-Beriti,Indonesia,Sumatra,-2.82,102.18,1958,Compound volcano,Fumarolic,U
1202-06-,Belknap,United States,US-Oregon,44.285,-121.841,2095,Shield volcano,Radiocarbon,D6
1000-64-,Bely,Russia,Kamchatka,57.88,160.53,2080,Shield volcano,Holocene,U
1900-022,Berlin,Antarctica,Antarctica,-76.05,-136,3478,Shield volcano,Fumarolic,U
0201-191,Beru,Ethiopia,Africa-NE,8.95,39.75,1100,Volcanic field,Holocene,U
0900-04=,Berutarube,Russia,Kuril Is,44.47,146.93,1220,Stratovolcano,Holocene,U
0601-25=,Besar,Indonesia,Sumatra,-4.43,103.67,1899,Stratovolcano,Historical,D2
1000-25=,Bezymianny,Russia,Kamchatka,55.978,160.587,2882,Stratovolcano,Historical,D1
0608-073,Bibinoi,Indonesia,Halmahera-Indonesia,-0.78,127.72,900,Stratovolcano,Holocene,U
1203-04-,Big Cave,United States,US-California,40.955,-121.365,1259,Shield volcano,Holocene,Unknown
0201-291,Bilate River Field,Ethiopia,Africa-NE,7.07,38.1,1700,Maar,Holocene,U
0702-08=,Biliran,Philippines,Philippines-C,11.523,124.534,1187,Compound volcano,Historical,D2
0505-011,Billy Mitchell,Papua New Guinea,Bougainville-SW Paci,-6.092,155.225,1544,Pyroclastic shield,Radiocarbon,D5
0301-18-,Bir Borhut,Yemen,Arabia-S,15.55,50.63,0,Volcanic field,Holocene,Unknown
0301-072,"Birk, Harrat al",Saudi Arabia,Arabia-W,18.367,41.633,381,Volcanic field,Holocene,U
0201-22-,Bishoftu Volc Field,Ethiopia,Africa-NE,8.78,38.98,1850,Fissure vent,Holocene,U
0204-05-,Biu Plateau,Nigeria,Africa-W,10.75,12,0,Volcanic field,Holocene,Unknown
1102-08-,Black Peak,United States,Alaska Peninsula,56.53,-158.8,1032,Stratovolcano,Radiocarbon,D7
1207-05-,Black Rock Desert,United States,US-Utah,38.97,-112.5,1800,Volcanic field,Radiocarbon,D6
1507-064,"Blanca, Loma",Chile,Chile-C,-36.286,-71.009,2268,Stratovolcano,Holocene,U
1000-49-,Bliznets,Russia,Kamchatka,56.97,159.78,1244,Stratovolcano,Holocene,U
1000-552,Bliznetsy,Russia,Kamchatka,57.35,161.367,265,Lava cone,Radiocarbon,D7
1202-03-,Blue Lake Crater,United States,US-Oregon,44.42,-121.77,1230,Maar,Radiocarbon,D7
0501-001,Blup Blup,Papua New Guinea,New Guinea-NE of,-3.508,144.62,402,Stratovolcano,Holocene,U
1101-10-,Bobrof,United States,Aleutian Is,51.9,-177.43,738,Stratovolcano,Holocene,Unknown
0900-06-,Bogatyr Ridge,Russia,Kuril Is,44.83,147.37,1634,Stratovolcano,Holocene,U
1101-30-,Bogoslof,United States,Aleutian Is,53.93,-168.03,101,Submarine volcano,Historical,D1
0501-011,Boisa,Papua New Guinea,New Guinea-NE of,-3.994,144.963,240,Stratovolcano,Holocene,U
0502-05=,Bola,Papua New Guinea,New Britain-SW Pac,-5.15,150.03,1155,Stratovolcano,Holocene,U
1000-087,Bolshe-Bannaya,Russia,Kamchatka,52.9,157.78,1200,Lava dome,Holocene,U
1000-30-,Bolshoi Payalpan,Russia,Kamchatka,55.88,157.78,1906,Shield volcano,Holocene,U
1000-15=,Bolshoi Semiachik,Russia,Kamchatka,54.32,160.02,1720,Stratovolcano,Radiocarbon,D7
1000-36-,Bolshoi-Kekuknaysky,Russia,Kamchatka,56.47,157.8,1401,Shield volcano,Holocene,U
0610-01-,Bombalai,Malaysia,Borneo,4.4,117.88,531,Pyroclastic cone,Holocene,Unknown
1105-03-,Bona-Churchill,United States,Alaska-E,61.38,-141.75,5005,Stratovolcano,Radiocarbon,D6
0304-00-,Boomerang Seamount,Antarctica,Indian O.-S,-37.721,77.825,-650,Submarine volcano,Historical,D2
0201-24-,Bora-Bericcio Complex,Ethiopia,Africa-NE,8.27,39.03,2285,Pumice cone,Holocene,U
0201-071,Borale Ale,Ethiopia,Africa-NE,13.725,40.6,668,Stratovolcano,Holocene,U
0201-107,Borawli,Ethiopia,Africa-NE,13.3,40.98,812,Stratovolcano,Holocene,U
0201-121,Borawli Complex,Ethiopia,Africa-NE,11.63,41.45,875,Lava dome,Holocene,U
0201-21-,Boset-Bericha,Ethiopia,Africa-NE,8.558,39.475,2447,Stratovolcano,Holocene,U
1806-02-,Bouvet,Bouvet I.,Atlantic-S,-54.42,3.35,780,Shield volcano,Magnetism,D7
0604-001,Bratan,Indonesia,Lesser Sunda Is,-8.28,115.13,2276,Caldera,Holocene,U
1804-02-,Brava,Cape Verde,Cape Verde Is,14.85,-24.72,900,Stratovolcano,Holocene,U
1501-011,"Bravo, Cerro",Colombia,Colombia,5.092,-75.3,4000,Stratovolcano,Radiocarbon,D4
1501-012,"Bravo, Cerro",Colombia,Colombia,5.092,-75.3,4000,Stratovolcano,Radiocarbon,D4
1701-04=,Brennisteinsfjoll,Iceland,Iceland-SW,63.92,-21.83,626,Crater rows,Historical,D6
1200-17-,Bridge River Cones,Canada,Canada,50.8,-123.4,2500,Volcanic field,Holocene,U
1900-04=,Bridgeman Island,Antarctica,Antarctica,-62.05,-56.75,240,Stratovolcano,Uncertain,Unknown
0402-02=,Brimstone Island,New Zealand,Kermadec Is,-30.23,-178.92,-2000,Submarine volcano,Uncertain,Unknown
1900-08=,Bristol Island,Antarctica,Antarctica,-59.03,-26.58,1100,Stratovolcano,Historical,D2
0401-15-,Brothers,New Zealand,New Zealand,-34.875,179.075,-1350,Submarine volcano,Fumarolic,U
1203-03-,Brushy Butte,United States,US-California,41.178,-121.443,1174,Shield volcano,Holocene,Unknown
1900-01=,Buckle Island,Antarctica,Antarctica,-66.8,163.25,1239,Stratovolcano,Historical,D3
0700-01=,Bud Dajo,Philippines,Sulu Is-Philippines,5.95,121.07,440,Pyroclastic cone,Historical,D3
0203-07-,Bufumbira,Uganda,Africa-C,-1.23,29.72,2440,Cinder cone,Holocene,Unknown
1101-01-,Buldir,United States,Aleutian Is,52.37,175.98,656,Stratovolcano,Holocene,U
0703-01=,Bulusan,Philippines,Luzon-Philippines,12.77,124.05,1565,Stratovolcano,Historical,D1
0203-004,Bunyaruguru Field,Uganda,Africa-C,-0.2,30.08,1554,Explosion crater,Holocene,U
1508-07=,"Burney, Monte",Chile,Chile-S,-52.33,-73.4,1758,Stratovolcano,Historical,D2
1003-03-,Bus-Obo,Mongolia,Mongolia,47.12,109.08,1162,Cinder cone,Holocene,Unknown
0201-26-,Butajiri-Silti Field,Ethiopia,Africa-NE,8.05,38.35,2281,Fissure vent,Holocene,U
1105-001,Buzzard Creek,United States,Alaska-E,64.07,-148.42,830,Tuff rings,Radiocarbon,D7
0702-05=,Cabalian,Philippines,Philippines-C,10.287,125.22,945,Stratovolcano,Holocene,U
1507-112,Caburga,Chile,Chile-C,-39.2,-71.83,995,Cinder cone,Tephrochronology,D7
0703-09=,Cagua,Philippines,Luzon-Philippines,18.222,122.123,1133,Stratovolcano,Holocene,U
1507-042,Calabozos,Chile,Chile-C,-35.558,-70.496,3508,Caldera,Holocene,U
0100-04-,Calatrava Volc Field,Spain,Spain,38.867,-4.017,1117,Pyroclastic cones,Radiocarbon,D7
0701-07=,Calayo,Philippines,Mindanao-Philippines,7.877,125.068,646,Tuff cone,Historical,D3
1508-02=,Calbuco,Chile,Chile-S,-41.326,-72.614,2003,Stratovolcano,Historical,D2
1507-091,Callaqui,Chile,Chile-C,-37.92,-71.45,3164,Stratovolcano,Historical,D1
0204-01=,"Cameroon, Mt.",Cameroon,Africa-W,4.203,9.17,4095,Stratovolcano,Historical,D1
0701-08=,Camiguin,Philippines,Mindanao-Philippines,9.203,124.673,1332,Stratovolcano,Historical,D2
0704-01=,Camiguin de Babuyanes,Philippines,Luzon-N of,18.83,121.86,712,Stratovolcano,Historical,D3
0101-01=,Campi Flegrei,Italy,Italy,40.827,14.139,458,Caldera,Historical,D5
0101-07=,Campi Flegrei Mar Sicilia,Italy,Italy,37.1,12.7,-8,Submarine volcanoes,Historical,D3
1900-10=,Candlemas Island,Antarctica,Antarctica,-57.08,-26.67,550,Stratovolcano,Historical,D2
1101-23-,Carlisle,United States,Aleutian Is,52.9,-170.05,1620,Stratovolcano,Historical,D3
1507-14=,Carran-Los Venados,Chile,Chile-C,-40.35,-72.07,1114,Pyroclastic cone,Historical,D1
1210-01-,Carrizozo,United States,US-New Mexico,33.78,-105.93,1731,Cinder cone,Holocene,U
1504-06-,"Casiri, Nevados",Peru,Peru,-17.47,-69.82,5650,Stratovolcano,Holocene,U
1502-004,Cayambe,Ecuador,Ecuador,0.029,-77.986,5790,Compound volcano,Historical,D4
1502-006,Cayambe,Ecuador,Ecuador,0.029,-77.986,5790,Compound volcano,Historical,D4
1508-021,Cayute-La Vigueria,Chile,Chile-S,-41.25,-72.27,506,Pyroclastic cone,Holocene,U
1508-012,Cayutué-La Viguería,Chile,Chile-S,-41.25,-72.267,506,Pyroclastic cones,Tephrochronology,D7
1401-03=,Ceboruco,Mexico,Mexico,21.125,-104.508,2280,Stratovolcano,Historical,D3
0705-06-,"Cendres, Ile des",Vietnam,SE Asia,10.158,109.014,-20,Submarine volcanoes,Historical,D2
0202-01=,Central Island,Kenya,Africa-E,3.5,36.042,550,Stratovolcano,Holocene,U
0603-17=,Cereme,Indonesia,Java,-6.892,108.4,3078,Stratovolcano,Historical,D2
1006-02-,Ch'uga-ryong,North Korea,Korea,38.33,127.33,452,Shield volcano,Holocene,Unknown
1502-022,Chacana,Ecuador,Ecuador,-0.375,-78.25,4643,Caldera,Historical,D4
1504-005,"Chachani, Nevado",Peru,Peru,-16.191,-71.53,6057,Stratovolcano,Holocene,U
1504-007,"Chachani, Nevado",Peru,Peru,-16.191,-71.53,6057,Stratovolcano,Holocene?,?
1101-20-,Chagulak,United States,Aleutian Is,52.57,-171.13,1142,Stratovolcano,Holocene,U
0100-02-,Chaine des Puys,France,France,45.775,2.967,1464,Cinder cone,Radiocarbon,D7
1508-041,Chaiten,Chile,Chile-S,-42.833,-72.646,962,Caldera,Holocene,D1
1005-06-,Changbaishan,North Korea,China-E,41.98,128.08,2744,Stratovolcano,Historical,D4
1507-101,"Chapulul, Cerro",Chile,Chile-C,-38.37,-71.08,2143,Cinder cone,Holocene,U
1000-46-,Cherny,Russia,Kamchatka,56.82,159.67,1778,Stratovolcano,Holocene,U
1000-273,Cherpuk Group,Russia,Kamchatka,55.55,157.467,1868,Pyroclastic cones,Radiocarbon,D7
1401-08=,Chichinautzin,Mexico,Mexico,19.08,-99.13,3930,Volcanic field,Radiocarbon,D6
1401-12=,"Chichon, El",Mexico,Mexico,17.36,-93.228,1150,Tuff cone,Historical,D1
1102-11-,Chiginagak,United States,Alaska Peninsula,57.13,-157,2075,Stratovolcano,Historical,D1
0900-36=,Chikurachki,Russia,Kuril Is,50.325,155.458,1816,Stratovolcano,Historical,D1
1505-101,Chiliques,Chile,Chile-N,-23.58,-67.7,5778,Stratovolcano,Holocene,U
1505-098,Chiliques,Chile,Chile-N,-23.583,-67.7,5778,Stratovolcano,Holocene?,?
1507-07=,"Chillan, Nevados de",Chile,Chile-C,-36.863,-71.377,3212,Stratovolcano,Historical,D1
1502-071,Chimborazo,Ecuador,Ecuador,-1.464,-78.815,6310,Stratovolcano,Radiocarbon,D6
1403-09=,Chinameca,El Salvador,El Salvador,13.475,-88.32,1228,Stratovolcano,Holocene,U
1402-15-,Chingo Volc Field,Guatemala,Guatemala,14.12,-89.73,1775,Stratovolcano,Holocene,U
1402-20-,Chiquimula Volc Field,Guatemala,Guatemala,14.83,-89.55,1192,Cinder cone,Holocene,U
0201-30-,Chiracha,Ethiopia,Africa-NE,6.65,38.12,1650,Stratovolcano,Holocene,Unknown
0900-26=,Chirinkotan,Russia,Kuril Is,48.98,153.48,724,Stratovolcano,Historical,D1
0900-09=,Chirip,Russia,Kuril Is,45.38,147.92,1589,Stratovolcano,Historical,D3
0900-15=,Chirpoi,Russia,Kuril Is,46.525,150.875,742,Caldera,Historical,D1
0803-22=,Chokai,Japan,Honshu-Japan,39.08,140.03,2237,Stratovolcano,Historical,D1
0202-13=,Chyulu Hills,Kenya,Africa-E,-2.68,37.88,2188,Volcanic field,Anthropology,D3
1404-132,"Ciguatepe, Cerro El",Nicaragua,Nicaragua,12.53,-86.142,603,Stratovolcano,Holocene,Unknown
1202-15-,Cinnamon Butte,United States,US-Oregon,43.241,-122.108,1956,Cinder cone,Holocene,Unknown
1403-051,"Cinotepec, Cerro",El Salvador,El Salvador,14.02,-89.25,665,Volcanic field,Holocene,U
0401-101,Clark,New Zealand,New Zealand,-36.446,177.839,-860,Submarine volcano,Fumarolic,U
1203-10-,Clear Lake,United States,US-California,38.97,-122.77,1439,Volcanic field,Holocene,U
1301-02-,Cleft Segment,Pacific Ocean,Pacific-NE,44.83,-130.3,-2140,Submarine volcano,Historical,D1
1101-24-,Cleveland,United States,Aleutian Is,52.82,-169.95,1730,Stratovolcano,Historical,D1
1403-041,Coatepeque Caldera,El Salvador,El Salvador,13.87,-89.55,746,Caldera,Holocene,U
0304-05-,"Cochons, Ile Aux",Indian Ocean,Indian O-S,-46.1,50.23,775,Stratovolcano,Holocene,U
1401-096,Cofre de Perote,Mexico,Mexico,19.492,-97.15,4282,Shield volcano,Radiocarbon,D6
1505-095,Colachi,Chile,Chile-N,-23.23,-67.65,5631,Stratovolcano,Holocene,U
0505-053,Coleman Seamount,Solomon Is.,Solomon Is-SW Pacifi,-8.83,157.17,0,Submarine volcano,Holocene,U
1401-04=,Colima,Mexico,Mexico,19.514,-103.62,3850,Stratovolcano,Historical,D1
1505-021,"Colluma, Cerro",Bolivia,Bolivia,-18.5,-68.07,3876,Maar,Holocene,Unknown
0606-01=,Colo [Una Una],Indonesia,Sulawesi-Indonesia,-0.17,121.608,507,Stratovolcano,Historical,D1
1401-012,Comondu-La Purisima,Mexico,Mexico,26,-111.92,780,Volcanic field,Holocene,Unknown
1404-12=,Concepcion,Nicaragua,Nicaragua,11.538,-85.622,1700,Stratovolcano,Historical,D1
1403-11=,Conchagua,El Salvador,El Salvador,13.277,-87.853,1250,Stratovolcano,Uncertain,Unknown
1403-12=,Conchaguita,El Salvador,El Salvador,13.22,-87.765,550,Stratovolcano,Historical,D3
1508-09-,"Cook, Isla",Chile,Chile-S,-54.95,-70.27,150,Lava dome,Holocene,U
1507-09=,Copahue,Chile,Chile-C,-37.85,-71.17,2965,Stratovolcano,Historical,D1
1505-14-,Copiapo,Chile,Chile-N,-27.3,-69.13,6052,Stratovolcano,Uncertain,Unknown
0201-29-,Corbetti Caldera,Ethiopia,Africa-NE,7.18,38.43,2320,Caldera,Holocene,U
1508-05=,Corcovado,Chile,Chile-S,-43.18,-72.8,2300,Stratovolcano,Historical,D3
1505-103,Cordon Chalviri,Chile,Chile-N,-23.85,-67.62,5623,Stratovolcano,Holocene,U
1505-102,Cordon de Puntas Negras,Chile,Chile-N,-23.75,-67.53,5852,Stratovolcano,Holocene,U
1505-121,Cordon del Azufre,Argentina,Chile-N,-25.33,-68.52,5463,Complex volcano,Holocene,U
1401-005,Coronado,Mexico,Mexico,29.08,-113.513,440,Stratovolcano,Fumarolic,U
1504-001,Coropuna,Peru,Peru,-15.52,-72.65,6377,Stratovolcano,Holocene,U
1802-002,Corvo,Portugal,Azores,39.67,-31.07,715,Stratovolcano,Holocene,U
1404-01=,Cosiguina,Nicaragua,Nicaragua,12.98,-87.57,872,Stratovolcano,Historical,D3
1203-18-,Coso Volc Field,United States,US-California,36.03,-117.82,2400,Lava dome,Holocene,Unknown
1502-05=,Cotopaxi,Ecuador,Ecuador,-0.677,-78.436,5911,Stratovolcano,Historical,D2
1508-025,Crater Basalt Volc Field,Argentina,Chile-S/Argentina,-42.017,-70.183,1359,Cinder cones,Holocene,U
1202-16-,Crater Lake,United States,US-Oregon,42.93,-122.12,2487,Caldera,Radiocarbon,D7
0503-001,Crater Mountain,Papua New Guinea,New Guinea,-6.58,145.08,3233,Stratovolcano,Holocene,Unknown
1204-02-,Craters of the Moon,United States,US-Idaho,43.42,-113.5,2005,Cinder cone,Radiocarbon,D7
1200-11-,Crow Lagoon,Canada,Canada,54.7,-130.23,335,Pyroclastic cone,Holocene,U
0705-02-,Cu-Lao Re Group,Vietnam,SE Asia,15.38,109.12,181,Volcanic field,Holocene,U
1502-002,Cuicocha,Ecuador,Ecuador,0.308,-78.364,3246,Caldera,Radiocarbon,D7
1402-111,Cuilapa-Barbarena,Guatemala,Guatemala,14.333,-90.4,1454,Volcanic field,Holocene,U
1402-121,Cuilapa-Barbarena,Guatemala,Guatemala,14.33,-90.4,1454,Volcanic field,Holocene,U
1501-10=,Cumbal,Colombia,Colombia,0.98,-77.88,4764,Stratovolcano,Historical,D2
1401-098,"Cumbres, Las",Mexico,Mexico,19.15,-97.27,3940,Stratovolcano,Radiocarbon,D7
0403-101,Curacoa,Tonga,Tonga-SW Pacific,-15.62,-173.67,-33,Submarine volcano,Historical,D1
0403-102,Curacoa,Tonga,Tonga-SW Pacific,-15.617,-173.667,-33,Submarine volcano,Historical,D2
0402-01=,Curtis Island,New Zealand,Kermadec Is,-30.542,-178.561,137,Submarine volcano,Uncertain,Unknown
1505-19-,"Cóndor, Cerro el",Argentina,Argentina,-26.617,-68.35,6532,Stratovolcano,Holocene,U
0201-113,Dabbahu,Ethiopia,Africa-NE,12.6,40.48,1442,Stratovolcano,Holocene,U
0201-114,Dabbayra,Ethiopia,Africa-NE,12.38,40.07,1302,Shield volcano,Holocene,U
0302-06-,Dacht-I-Navar Group,Afghanistan,Afghanistan,33.95,67.92,3800,Lava dome,Holocene,U
0804-137,Daikoku,Japan,Volcano Is-Japan,21.324,144.194,-323,Submarine volcano,Fumarolic,U
0805-06=,Daisetsu,Japan,Hokkaido-Japan,43.68,142.88,2290,Stratovolcano,Tephrochronology,D6
0502-04=,Dakataua,Papua New Guinea,New Britain-SW Pac,-5.056,150.108,400,Caldera,Anthropology,D3
0201-07=,Dalaffilla,Ethiopia,Africa-NE,13.792,40.55,613,Stratovolcano,Holocene,U
0201-041,Dallol,Ethiopia,Africa-NE,14.242,40.3,-48,Explosion crater,Historical,D2
0201-141,Dama Ali,Ethiopia,Africa-NE,11.28,41.63,1068,Shield volcano,Historical,D5
0302-01-,Damavand,Iran,Iran,35.951,52.109,5670,Stratovolcano,Holocene,U
1102-05-,Dana,United States,Alaska Peninsula,55.62,-161.22,1354,Stratovolcano,Radiocarbon,D7
0603-01=,Danau Complex,Indonesia,Java,-6.2,105.97,1778,Caldera,Holocene,U
0104-08-,Dar-Alages,Armenia,Armenia,39.7,45.542,3329,Unknown,Holocene,U
1003-04-,Dariganga Volc Field,Mongolia,Mongolia,45.33,114,1778,Cinder cone,Holocene,U
1503-03=,"Darwin, Volcan",Ecuador,Galapagos,-0.18,-91.28,1330,Shield volcano,Holocene,D3
0601-21=,"Daun, Bukit",Indonesia,Sumatra,-3.38,102.37,2467,Stratovolcano,Fumarolic,U
1101-04-,Davidof,United States,Aleutian Is,51.97,178.33,328,Stratovolcano,Holocene,Unknown
1202-10-,Davis Lake,United States,US-Oregon,43.57,-121.82,2163,Volcanic field,Radiocarbon,D7
0503-06=,Dawson Strait Group,Papua New Guinea,D'Entrecasteaux Is,-9.62,150.88,500,Volcanic field,Hydration Rind,D6
1900-03=,Deception Island,Antarctica,Antarctica,-62.97,-60.65,576,Caldera,Historical,D1
0900-11-,Demon,Russia,Kuril Is,45.5,148.85,1205,Stratovolcano,Holocene,U
0601-23=,Dempo,Indonesia,Sumatra,-4.03,103.13,3173,Stratovolcano,Historical,D1
1102-21-,Denison,United States,Alaska Peninsula,58.42,-154.45,2318,Stratovolcano,Uncertain,Unknown
1507-05=,Descabezado Grande,Chile,Chile-C,-35.58,-70.75,3953,Stratovolcano,Historical,D2
1202-12-,Devils Garden,United States,US-Oregon,43.512,-120.861,1698,Volcanic field,Holocene,Unknown
1002-04-,Dgida Basin,Russia,Russia-SE,50.52,103.25,1500,Cinder cone,Holocene,U
0301-12-,"Dhamar, Harras of",Yemen,Arabia-S,14.57,44.67,3500,Volcanic field,Historical,D2
1600-08=,"Diable, Morne Au",Dominica,W Indies,15.62,-61.45,861,Stratovolcano,Fumarolic,U
1600-09=,"Diablotins, Morne",Dominica,W Indies,15.5,-61.42,1430,Stratovolcano,Holocene,U
1202-17-,Diamond Craters,United States,US-Oregon,43.1,-118.75,1435,Volcanic field,Holocene,Unknown
0704-02=,Didicas,Philippines,Luzon-N of,19.077,122.202,244,Compound volcano,Historical,D1
0603-20=,Dieng Volc Complex,Indonesia,Java,-7.2,109.92,2565,Complex volcano,Historical,D1
1000-022,Diky Greben,Russia,Kamchatka,51.43,157,1070,Lava dome,Radiocarbon,D6
0201-18=,Dofen,Ethiopia,Africa-NE,9.35,40.13,1151,Stratovolcano,Holocene,U
0503-00-,Doma Peaks,Papua New Guinea,New Guinea,-5.9,143.15,3568,Stratovolcano,Holocene,Unknown
1507-067,Domuyo,Argentina,Argentina,-36.63,-70.42,4709,Stratovolcano,Holocene,Unknown
1802-07=,Don Joao de Castro Bank,Portugal,Azores,38.23,-26.63,-14,Submarine volcano,Historical,D4
1501-07=,Dona Juana,Colombia,Colombia,1.47,-76.92,4150,Stratovolcano,Historical,D2
1208-01-,Dotsero,United States,US-Colorado,39.65,-107.03,2230,Maar,Radiocarbon,D7
1102-27-,Douglas,United States,Alaska Peninsula,58.87,-153.55,2140,Stratovolcano,Fumarolic,U
0804-095,Doyo Seamount,Japan,Izu Is-Japan,27.683,140.8,-860,Submarine volcano,Fumarolic,U
0201-10=,Dubbi,Eritrea,Africa-NE,13.58,41.808,1625,Stratovolcano,Historical,D3
0608-01=,Dukono,Indonesia,Halmahera-Indonesia,1.68,127.88,1185,Complex volcano,Historical,D1
1105-05-,Duncan Canal,United States,Alaska-SE,56.5,-133.1,15,Unknown,Holocene,U
1401-022,Durango Volc Field,Mexico,Mexico,24.15,-104.45,2075,Cinder cone,Holocene,U
1102-011,Dutton,United States,Alaska Peninsula,55.18,-162.27,1506,Stratovolcano,Holocene,U
1000-11=,Dzenzursky,Russia,Kamchatka,53.637,158.922,2155,Compound volcano,Holocene,U
0805-011,E-san,Japan,Hokkaido-Japan,41.8,141.17,618,Stratovolcano,Historical,D3
1203-09-,Eagle Lake Field,United States,US-California,40.63,-120.83,1652,Fissure vent,Holocene,Unknown
1506-011,Easter Island,Chile,Chile-Is,-27.15,-109.383,511,Shield volcanoes,Holocene,U
0508-001,Eastern Gemini Seamount,Pacific Ocean,SW Pacific,-20.98,170.28,-80,Submarine volcano,Historical,D1
0900-38=,Ebeko,Russia,Kuril Is,50.68,156.02,1156,Somma volcano,Historical,D1
0604-10=,Ebulobo,Indonesia,Lesser Sunda Is,-8.808,121.18,2124,Stratovolcano,Historical,D1
0202-08=,"Eburru, Ol Doinyo",Kenya,Africa-E,-0.63,36.23,2856,Complex volcano,Holocene,U
1503-011,"Ecuador, Volcan",Ecuador,Galapagos,-0.02,-91.546,790,Shield volcano,Holocene,U
1105-04-,Edgecumbe,United States,Alaska-SE,57.05,-135.75,976,Stratovolcano,Radiocarbon,D7
1200-06-,Edziza,Canada,Canada,57.72,-130.63,2786,Stratovolcano,Radiocarbon,D6
1000-42-,Eggella,Russia,Kamchatka,56.57,158.52,1046,Shield volcano,Holocene,U
0401-03=,Egmont,New Zealand,New Zealand,-39.3,174.07,2518,Stratovolcano,Radiocarbon,D4
0604-16=,Egon,Indonesia,Lesser Sunda Is,-8.67,122.45,1703,Stratovolcano,Historical,D2
0900-27=,Ekarma,Russia,Kuril Is,48.958,153.93,1170,Stratovolcano,Historical,D1
0104-01-,Elbrus,Russia,Russia-SW,43.33,42.45,5633,Stratovolcano,Tephrochronology,D6
0202-071,Elmenteita Badlands,Kenya,Africa-E,-0.52,36.27,2126,Pyroclastic cone,Holocene,U
1000-59-,Elovsky,Russia,Kamchatka,57.53,160.53,1381,Shield volcano,Holocene,U
1102-02-,Emmons Lake,United States,Alaska Peninsula,55.33,-162.07,1465,Caldera,Holocene,U
0605-01=,Emperor of China,Pacific Ocean,Banda Sea,-6.62,124.22,-2850,Submarine volcano,Uncertain,Unknown
0202-051,Emuruangogolak,Kenya,Africa-E,1.5,36.33,1328,Shield volcano,Radiocarbon,D2
1301-01-,Endeavour Ridge,Pacific Ocean,Pacific-NE,47.95,-129.1,-2400,Submarine volcano,Historical,D1
0507-06=,Epi,Vanuatu,Vanuatu-SW Pacific,-16.68,168.37,833,Stratovolcano,Historical,D1
0103-01=,Erciyes Dagi,Turkey,Turkey,38.52,35.48,3916,Stratovolcano,Holocene,U
1900-02=,Erebus,Antarctica,Antarctica,-77.53,167.17,3794,Stratovolcano,Historical,D1
0201-08=,Erta Ale,Ethiopia,Africa-NE,13.6,40.67,613,Shield volcano,Historical,D1
0300-05-,Es Safa,Syria,Syria,33.08,37.15,979,Volcanic field,Historical,D3
1301-04-,Escanaba Segment,Pacific Ocean,Pacific-NE,40.983,-127.5,-1700,Submarine volcano,Uranium-series,D7
1505-112,"Escorial, Cerro",Argentina,Chile-N,-25.08,-68.37,5447,Stratovolcano,Holocene,U
1704-02=,Esjufjoll,Iceland,Iceland-SE,64.27,-16.65,1760,Stratovolcano,Historical,D2
0804-21=,Esmeralda Bank,United States,Mariana Is-C Pacific,15,145.25,-43,Submarine volcano,Fumarolic,U
1104-01-,Espenberg,United States,Alaska-W,66.35,-164.33,243,Volcanic field,Tephrochronology,D7
0304-03-,"Est, Ile de l'",French Southern & Antarctic Lands,Indian O-S,-46.43,52.2,1090,Stratovolcano,Holocene,Unknown
1404-131,Esteli,Nicaragua,Nicaragua,13.17,-86.4,899,Fissure vent,Holocene,Unknown
0101-06=,Etna,Italy,Italy,37.734,15.004,3350,Stratovolcano,Historical,D1
1702-02=,Eyjafjallajokull,Iceland,Iceland-S,63.63,-19.62,1666,Stratovolcano,Historical,D1
0403-05=,Falcon Island,Tonga,Tonga-SW Pacific,-20.32,-175.42,-17,Submarine volcano,Historical,D2
0804-14=,Farallon de Pajaros,United States,Mariana Is-C Pacific,20.53,144.9,360,Stratovolcano,Historical,D1
1802-01=,Fayal,Portugal,Azores,38.6,-28.73,1043,Stratovolcano,Historical,D2
1000-51-,Fedotych,Russia,Kamchatka,57.13,160.4,965,Shield volcano,Holocene,U
0201-19=,Fentale,Ethiopia,Africa-NE,8.975,39.93,2007,Stratovolcano,Historical,D3
1503-01=,Fernandina,Ecuador,Galapagos,-0.37,-91.55,1495,Shield volcano,Historical,D1
1504-00-,"Firura, Nevados",Peru,Peru,-15.23,-72.63,5498,Stratovolcano,Holocene,U
1101-35-,Fisher,United States,Aleutian Is,54.67,-164.35,1094,Stratovolcano,Historical,D3
1802-001,Flores,Portugal,Azores,39.4,-31.17,915,Stratovolcano,Radiocarbon,D7
1402-14-,Flores,Guatemala,Guatemala,14.3,-90,1600,Volcanic field,Holocene,U
1804-01=,Fogo,Cape Verde,Cape Verde Is,14.95,-24.35,2829,Stratovolcano,Historical,D1
0403-10=,Fonualei,Tonga,Tonga-SW Pacific,-18.02,-174.325,200,Stratovolcano,Historical,D2
0804-22-,Forecast Seamount,United States,Mariana Is-C Pacific,13.4,143.917,,Submarine volcano,Fumarolic,U
0203-001,Fort Portal Field,Uganda,Africa-C,0.7,30.25,1524,Tuff cone,Holocene,U
1200-01-,Fort Selkirk,Canada,Canada,62.93,-137.38,1239,Volcanic field,Holocene,U
1202-14-,Four Craters Lava Field,United States,US-Oregon,43.361,-120.669,1501,Volcanic field,Holocene,Unknown
0303-02=,"Fournaise, Piton de la",Reunion,Indian O-W,-21.229,55.713,2631,Shield volcano,Historical,D1
1102-26-,Fourpeaked,United States,Alaska Peninsula,58.77,-153.68,2104,Stratovolcano,Uncertain,Unknown
1703-07=,Fremrinamur,Iceland,Iceland-NE,65.43,-16.65,939,Stratovolcano,Tephrochronology,D7
1102-01-,Frosty,United States,Alaska Peninsula,55.07,-162.82,1920,Stratovolcano,Holocene,U
1402-09=,Fuego,Guatemala,Guatemala,14.473,-90.88,3763,Stratovolcano,Historical,D1
1803-05-,Fuerteventura,Spain,Canary Is,28.358,-14.02,529,Fissure vent,Holocene,U
0803-03=,Fuji,Japan,Honshu-Japan,35.35,138.73,3776,Stratovolcano,Historical,D4
0802-091,Fukue-jima,Japan,Kyushu-Japan,32.653,128.851,317,Shield volcanoes,Tephrochronology,D7
0804-133,Fukujin,Japan,Volcano Is-Japan,21.925,143.442,-217,Submarine volcano,Historical,D1
0804-13=,Fukutoku-okanoba,Japan,Volcano Is-Japan,24.28,141.52,-14,Submarine volcano,Historical,D1
1802-10=,Furnas,Portugal,Azores,37.77,-25.32,805,Stratovolcano,Historical,D5
0900-34=,Fuss Peak,Russia,Kuril Is,50.27,155.25,1772,Stratovolcano,Historical,D3
0201-15=,Gabillema,Ethiopia,Africa-NE,11.08,41.27,1459,Stratovolcano,Holocene,U
0201-05=,Gada Ale,Ethiopia,Africa-NE,13.975,40.408,287,Stratovolcano,Holocene,U
1303-02-,Galapagos Rift,Pacific Ocean,Pacific-E,0.792,-86.15,-2430,Submarine volcano,Historical,D1
1304-07-,Galapagos Rift,Pacific Ocean,Pacific-E,0.792,-86.15,-2430,Submarine volcano,Historical,D2
1501-08=,Galeras,Colombia,Colombia,1.22,-77.37,4276,Complex volcano,Historical,D1
0505-062,Gallego,Solomon Is.,Solomon Is-SW Pacifi,-9.35,159.73,1000,Volcanic field,Holocene,Unknown
0603-14=,Galunggung,Indonesia,Java,-7.25,108.05,2168,Stratovolcano,Historical,D1
0608-06=,Gamalama,Indonesia,Halmahera-Indonesia,0.8,127.325,1715,Stratovolcano,Historical,D1
1000-21=,Gamchen,Russia,Kamchatka,54.973,160.702,2576,Complex volcano,Holocene,U
0608-04=,Gamkonora,Indonesia,Halmahera-Indonesia,1.375,127.52,1635,Stratovolcano,Historical,D1
0502-07=,Garbuna Group,Papua New Guinea,New Britain-SW Pac,-5.45,150.03,564,Stratovolcano,Holocene,U
1101-07-,Gareloi,United States,Aleutian Is,51.78,-178.8,1573,Stratovolcano,Historical,D1
1200-19-,Garibaldi Lake,Canada,Canada,49.92,-123.03,2316,Volcanic field,Holocene,U
1200-20-,"Garibaldi, Mt.",Canada,Canada,49.85,-123,2678,Stratovolcano,Radiocarbon,D7
0502-03=,Garove,Papua New Guinea,New Britain-SW Pac,-4.692,149.5,368,Stratovolcano,Holocene,U
0502-06=,Garua Harbour,Papua New Guinea,New Britain-SW Pac,-5.269,150.088,565,Volcanic field,Holocene,Unknown
0507-02=,Gaua,Vanuatu,Vanuatu-SW Pacific,-14.27,167.5,797,Stratovolcano,Historical,D1
0201-23-,Gedamsa Caldera,Ethiopia,Africa-NE,8.35,39.18,1984,Caldera,Holocene,U
0603-06=,Gede,Indonesia,Java,-6.78,106.98,2958,Stratovolcano,Historical,D2
1503-081,Genovesa,Ecuador,Galapagos,0.32,-89.958,64,Shield volcano,Holocene,U
1000-38-,Geodesistoy,Russia,Kamchatka,56.33,158.67,1170,Shield volcano,Holocene,U
0402-022,Giggenbach,New Zealand,Kermadec Is,-30.036,-178.713,-65,Submarine volcano,Fumarolic,U
0103-022,Girekol,Turkey,Turkey,39.17,43.33,0,Unknown,Holocene,U
1201-02-,Glacier Peak,United States,US-Washington,48.112,-121.113,3213,Stratovolcano,Tephrochronology,D4
1401-097,"Gloria, La",Mexico,Mexico,19.33,-97.25,3500,Volcanic field,Holocene,U
1203-17-,Golden Trout Creek,United States,US-California,36.358,-118.32,2886,Volcanic field,Tephrochronology,D7
0900-091,Golets-Tornyi Group,Russia,Kuril Is,45.25,148.35,442,Pyroclastic cone,Holocene,Unknown
0103-003,Gollu Dag,Turkey,Turkey,38.25,34.57,2143,Lava dome,Holocene,U
0900-01=,Golovnin,Russia,Kuril Is,43.85,145.53,541,Caldera,Historical,D3
0503-041,Goodenough,Papua New Guinea,D'Entrecasteaux Is,-9.48,150.35,220,Volcanic field,Holocene,U
1105-021,Gordon,United States,Alaska-E,62.13,-143.08,2755,Cinder cone,Holocene,U
1000-07=,Gorely,Russia,Kamchatka,52.558,158.03,1829,Caldera,Historical,D1
0900-17=,Goriaschaia Sopka,Russia,Kuril Is,46.83,151.75,891,Stratovolcano,Historical,D2
1000-53-,Gorny Institute,Russia,Kamchatka,57.33,160.2,2125,Stratovolcano,Holocene,U
1802-04=,Graciosa,Portugal,Azores,39.02,-27.97,402,Stratovolcano,Holocene,U
1803-04-,Gran Canaria,Spain,Canary Is,28,-15.58,1950,Fissure vent,Radiocarbon,D7
1101-12-,Great Sitkin,United States,Aleutian Is,52.08,-176.13,1740,Stratovolcano,Historical,D1
1102-19-,Griggs,United States,Alaska Peninsula,58.35,-155.1,2317,Stratovolcano,Holocene,U
0303-001,"Grille, La",Comoros,Indian O-W,-11.47,43.33,1087,Shield volcano,Holocene,U
1701-06=,Grimsnes,Iceland,Iceland-SW,64.03,-20.87,214,Crater rows,Tephrochronology,D7
1703-01=,Grimsvotn,Iceland,Iceland-NE,64.42,-17.33,1725,Caldera,Historical,D1
0201-116,Groppo,Ethiopia,Africa-NE,11.73,40.25,930,Stratovolcano,Holocene,U
0900-07=,Grozny Group,Russia,Kuril Is,45.02,147.87,1211,Complex volcano,Historical,D1
1401-006,Guadalupe,Mexico,Mexico,29.07,-118.28,1100,Shield volcano,Holocene,U
1502-02=,Guagua Pichincha,Ecuador,Ecuador,-0.171,-78.598,4784,Stratovolcano,Historical,D1
1505-02=,Guallatiri,Chile,Chile-N,-18.42,-69.17,6071,Stratovolcano,Historical,D2
1505-093,Guayaques,Bolivia,Chile-N,-22.88,-67.58,5598,Lava dome,Holocene,U
1403-052,Guazapa,El Salvador,El Salvador,13.9,-89.12,1438,Stratovolcano,Holocene,U
0201-124,Gufa,Eritrea,Africa-NE,12.55,42.53,600,Volcanic field,Holocene,U
0804-19=,Guguan,United States,Mariana Is-C Pacific,17.32,145.85,287,Stratovolcano,Historical,D3
0603-13=,Guntur,Indonesia,Java,-7.13,107.83,2249,Complex volcano,Historical,D3
0605-03=,Gunungapi Wetar,Pacific Ocean,Banda Sea,-6.642,126.65,282,Stratovolcano,Historical,D5
0804-05=,Hachijo-jima,Japan,Izu Is-Japan,33.13,139.77,854,Stratovolcano,Historical,D5
0803-25=,Hachimantai,Japan,Honshu-Japan,39.95,140.85,1614,Stratovolcano,Holocene,Unknown
0705-001,Hainan Dao,China,SE Asia,19.7,110.1,,Pyroclastic cones,Historical,D2
0803-28=,Hakkoda Group,Japan,Honshu-Japan,40.65,140.88,1585,Stratovolcano,Holocene,U
0803-02=,Hakone,Japan,Honshu-Japan,35.22,139.02,1438,Complex volcano,Radiocarbon,D7
0803-05=,Haku-san,Japan,Honshu-Japan,36.15,136.78,2702,Stratovolcano,Historical,D5
1302-06-,Haleakala,United States,Hawaiian Is,20.708,-156.25,3055,Shield volcano,Historical,D4
1006-04-,Halla,South Korea,Korea,33.37,126.53,1950,Shield volcano,Historical,D6
0201-022,Hanish,Yemen,Red Sea,13.72,42.73,422,Shield volcano,Holocene,U
0502-10=,Hargy,Papua New Guinea,New Britain-SW Pac,-5.33,151.1,1148,Stratovolcano,Radiocarbon,D6
0301-001,"Harrah, Al",Saudi Arabia,Arabia-W,31.083,38.417,1100,Volcanic field,Holocene,U
0205-007,Haruj,Libya,Africa-N,27.25,17.5,1200,Scoria cone,Holocene,U
0803-122,Haruna,Japan,Honshu-Japan,36.47,138.88,1449,Stratovolcano,Anthropology,D6
0103-002,Hasan Dagi,Turkey,Turkey,38.13,34.17,3253,Stratovolcano,Holocene,U
0705-04-,Haut Dong Nai,Vietnam,SE Asia,11.6,108.2,1000,Volcanic field,Holocene,Unknown
1103-05-,Hayes,United States,Alaska-SW,61.62,-152.48,2788,Stratovolcano,Radiocarbon,D6
0301-11-,"Haylan, Jabal",Yemen,Arabia-S,15.43,44.78,1550,Volcanic field,Anthropology,D7
0201-091,Hayli Gubbi,Ethiopia,Africa-NE,13.5,40.72,521,Shield volcano,Holocene,U
0401-14-,Healy,New Zealand,New Zealand,-35.004,178.973,980,Submarine volcano,Radiocarbon,D6
0304-01=,Heard,Heard I. & McDonald Is.,Indian O-S,-53.106,73.513,2745,Stratovolcano,Historical,D1
1200-04-,Heart Peaks,Canada,Canada,58.6,-131.97,2012,Shield volcano,Holocene,U
1702-07=,Hekla,Iceland,Iceland-S,63.98,-19.7,1491,Stratovolcano,Historical,D1
1204-04-,Hell's Half Acre,United States,US-Idaho,43.5,-112.45,1631,Shield volcano,Radiocarbon,D7
1701-05=,Hengill,Iceland,Iceland-SW,64.18,-21.33,803,Crater rows,Radiocarbon,D6
1101-22-,Herbert,United States,Aleutian Is,52.75,-170.12,1290,Stratovolcano,Holocene,U
0201-171,Hertali,Ethiopia,Africa-NE,9.78,40.33,900,Fissure vent,Holocene,U
1803-02-,Hierro,Spain,Canary Is,27.73,-18.03,1500,Shield volcano,Historical,D4
0803-191,Hijiori,Japan,Honshu-Japan,38.6,140.18,516,Caldera,Radiocarbon,D7
0608-052,Hiri,Indonesia,Halmahera-Indonesia,0.88,127.32,630,Stratovolcano,Holocene,U
0803-131,Hiuchi,Japan,Honshu-Japan,36.95,139.28,2346,Stratovolcano,Historical,D5
0201-293,Hobicha Caldera,Ethiopia,Africa-NE,6.78,37.83,1800,Caldera,Holocene,Unknown
1900-11=,Hodson,Antarctica,Antarctica,-56.7,-27.15,1005,Stratovolcano,Holocene,U
1701-09=,Hofsjokull,Iceland,Iceland-SW,64.78,-18.92,1782,Subglacial volcano,Holocene,U
0202-07=,Homa Mountain,Kenya,Africa-E,-0.38,34.5,1751,Complex volcano,Holocene,U
0403-08=,Home Reef,Tonga,Tonga-SW Pacific,-18.992,-174.775,-2,Submarine volcano,Historical,D1
1005-01-,Honggeertu,China,China-E,41.47,113,1700,Cinder cone,Holocene,Unknown
1202-01-,Hood,United States,US-Oregon,45.374,-121.694,3426,Stratovolcano,Historical,D3
1200-08-,Hoodoo Mountain,Canada,Canada,56.78,-131.28,1820,Subglacial volcano,Holocene,U
1508-023,Hornopiren,Chile,Chile-S,-41.874,-72.431,1572,Stratovolcano,Holocene,Unknown
1701-051,Hromundartindur,Iceland,Iceland-S,64.073,-21.202,540,Stratovolcano,Holocene?,?
1302-04-,Hualalai,United States,Hawaiian Is,19.692,-155.87,2523,Shield volcano,Historical,D3
1507-123,Huanquihue Group,Argentina,Argentina,-39.87,-71.55,1300,Pyroclastic cone,Holocene,U
1504-03=,Huaynaputina,Peru,Peru,-16.608,-70.85,4850,Stratovolcano,Historical,D5
1900-028,Hudson Mountains,Antarctica,Antarctica,-74.33,-99.42,749,Stratovolcano,Uncertain,Unknown
1508-057,"Hudson, Cerro",Chile,Chile-S,-45.9,-72.97,1905,Stratovolcano,Historical,D1
1508-03=,Huequi,Chile,Chile-S,-42.377,-72.578,1318,Stratovolcano,Historical,D2
1501-05=,Huila,Colombia,Colombia,2.92,-76.05,5365,Stratovolcano,Historical,D5
0601-28=,Hulubelu,Indonesia,Sumatra,-5.35,104.6,1040,Caldera,Fumarolic,U
1401-093,"Humeros, Los",Mexico,Mexico,19.68,-97.45,3150,Caldera,Holocene,Unknown
0403-04=,Hunga Tonga-Hunga Ha'apai,Tonga,Tonga-SW Pacific,-20.57,-175.38,0,Submarine volcano,Historical,D1
0508-02=,Hunter Island,Pacific Ocean,SW Pacific,-22.4,172.05,297,Stratovolcano,Historical,D2
0601-172,Hutapanjang,Indonesia,Sumatra,-2.333,101.6,2021,Stratovolcano,Holocene,U
0601-171,Hutapanjang,Indonesia,Sumatra,-2.33,101.6,2021,Stratovolcano,Holocene,U
0503-011,Hydrographers Range,Papua New Guinea,New Guinea,-9,148.37,1915,Stratovolcano,Holocene,U
0503-05=,Iamalele,Papua New Guinea,D'Entrecasteaux Is,-9.52,150.53,200,Lava dome,Holocene,U
0608-03=,Ibu,Indonesia,Halmahera-Indonesia,1.475,127.642,1325,Stratovolcano,Historical,D1
0802-07=,Ibusuki Volc Field,Japan,Kyushu-Japan,31.22,130.57,922,Caldera,Historical,D6
1000-28=,Ichinsky,Russia,Kamchatka,55.68,157.73,3621,Stratovolcano,Holocene,U
1000-71-,Iettunup,Russia,Kamchatka,58.4,161.08,1340,Shield volcano,Holocene,U
0202-161,Igwisi Hills,Tanzania,Africa-E,-4.87,31.92,0,Tuff cone,Holocene,U
0603-35=,Ijen,Indonesia,Java,-8.058,114.242,2799,Stratovolcano,Historical,D1
1000-67-,Iktunup,Russia,Kamchatka,58.08,160.77,2300,Shield volcano,Holocene,U
1103-02-,Iliamna,United States,Alaska-SW,60.03,-153.08,3053,Stratovolcano,Historical,D2
0604-22=,Iliboleng,Indonesia,Lesser Sunda Is,-8.342,123.258,1659,Stratovolcano,Historical,D1
0604-24=,Ililabalekan,Indonesia,Lesser Sunda Is,-8.53,123.42,1018,Stratovolcano,Fumarolic,U
0604-17=,Ilimuda,Indonesia,Lesser Sunda Is,-8.478,122.671,1100,Stratovolcano,Fumarolic,U
0604-25=,Iliwerung,Indonesia,Lesser Sunda Is,-8.54,123.59,1018,Complex volcano,Historical,D1
1502-041,Illiniza,Ecuador,Ecuador,-0.659,-78.714,5248,Stratovolcano,Holocene,U
1403-06=,Ilopango,El Salvador,El Salvador,13.672,-89.053,450,Caldera,Historical,D3
1000-03=,Ilyinsky,Russia,Kamchatka,51.49,157.2,1578,Stratovolcano,Historical,D2
0601-101,Imun,Indonesia,Sumatra,2.15,98.93,1505,Unknown,Holocene,Unknown
1104-02-,Imuruk Lake,United States,Alaska-W,65.6,-163.92,610,Shield volcano,Radiocarbon,D6
0205-003,In Ezzane Volc Field,Algeria,Africa-N,23,10.833,,Volcanic field,Holocene?,?
1201-07-,Indian Heaven,United States,US-Washington,45.93,-121.82,1513,Shield volcano,Radiocarbon,D7
1104-05-,Ingakslugwat Hills,United States,Alaska-W,61.43,-164.47,190,Cinder cone,Holocene,U
0604-09=,Inielika,Indonesia,Lesser Sunda Is,-8.73,120.98,1559,Complex volcano,Historical,D2
0604-08=,Inierie,Indonesia,Lesser Sunda Is,-8.875,120.95,2245,Stratovolcano,Fumarolic,U
1203-13-,Inyo Craters,United States,US-California,37.692,-119.02,2629,Lava dome,Radiocarbon,D6
1402-19-,Ipala Volc Field,Guatemala,Guatemala,14.55,-89.63,1650,Stratovolcano,Holocene,U
0704-06-,Iraya,Philippines,Luzon-N of,20.469,122.01,1009,Stratovolcano,Historical,D6
1405-06=,Irazu,Costa Rica,Costa Rica,9.979,-83.852,3432,Stratovolcano,Historical,D1
0703-041,Iriga,Philippines,Luzon-Philippines,13.457,123.457,1196,Stratovolcano,Historical,D5
0802-01=,Iriomote-jima,Japan,Ryukyu Is,24.558,124,-200,Submarine volcano,Historical,D2
1505-04=,Irruputuncu,Bolivia,Chile-N,-20.73,-68.55,5163,Stratovolcano,Historical,D1
1101-37-,Isanotski,United States,Aleutian Is,54.75,-163.73,2446,Stratovolcano,Historical,D3
0703-042,Isarog,Philippines,Luzon-Philippines,13.658,123.37,1966,Stratovolcano,Holocene,U
0101-03=,Ischia,Italy,Italy,40.73,13.897,789,Complex volcano,Historical,D6
1200-09-,Iskut-Unuk River Cones,Canada,Canada,56.58,-130.55,1880,Cinder cone,Radiocarbon,D3
1505-03=,Isluga,Chile,Chile-N,-19.15,-68.83,5050,Stratovolcano,Historical,D2
0303-014,Itasy Volc Field,Madagascar,Madagascar,-19,46.77,1800,Scoria cone,Radiocarbon,D7
0301-05=,"Ithnayn, Harrat",Saudi Arabia,Arabia-W,26.58,40.2,1625,Volcanic field,Holocene,U
0900-111,Ivao Group,Russia,Kuril Is,45.77,149.68,1426,Cinder cone,Holocene,U
0803-27=,Iwaki,Japan,Honshu-Japan,40.65,140.3,1625,Stratovolcano,Historical,D3
0803-24=,Iwate,Japan,Honshu-Japan,39.85,141,2041,Complex volcano,Historical,D2
0802-02=,Iwo-Tori-shima,Japan,Ryukyu Is,27.85,128.25,217,Complex volcano,Historical,D1
0804-12=,Iwo-jima,Japan,Volcano Is-Japan,24.75,141.33,161,Caldera,Historical,D1
1402-18-,Ixtepeque,Guatemala,Guatemala,14.42,-89.68,1292,Lava dome,Holocene,U
0604-11=,Iya,Indonesia,Lesser Sunda Is,-8.88,121.63,637,Stratovolcano,Historical,D1
0603-33=,Iyang-Argapura,Indonesia,Java,-7.97,113.57,3088,Complex volcano,Holocene,U
1403-03=,Izalco,El Salvador,El Salvador,13.813,-89.633,1950,Stratovolcano,Historical,D1
1401-082,Iztaccihuatl,Mexico,Mexico,19.179,-98.642,5230,Stratovolcano,Holocene,U
0803-01=,Izu-Tobu,Japan,Honshu-Japan,34.92,139.12,1406,Pyroclastic cone,Historical,D1
0202-165,Izumbwe-Mpoli,Tanzania,Africa-E,-8.93,33.4,1568,Pyroclastic cone,Holocene,U
0608-051,Jailolo,Indonesia,Halmahera-Indonesia,1.08,127.42,1130,Stratovolcano,Holocene,U
0703-08=,Jalajala,Philippines,Luzon-Philippines,14.35,121.33,743,Fumarole field,Fumarolic,Unknown
0201-03=,Jalua,Eritrea,Africa-NE,15.042,39.82,713,Stratovolcano,Holocene,U
1706-01=,Jan Mayen,Jan Mayen,Atlantic-N-Jan Mayen,71.08,-8.17,2277,Stratovolcano,Historical,D1
1401-004,Jaraguay Volc Field,Mexico,Mexico,29.33,-114.5,960,Cinder cone,Holocene,U
1505-035,"Jayu Khota, Laguna",Bolivia,Bolivia,-19.45,-67.417,3650,Maars,Holocene,U
1202-02-,Jefferson,United States,US-Oregon,44.692,-121.8,3199,Stratovolcano,Varve Count,D6
1005-04-,Jingpohu,China,China-E,44.08,128.83,500,Volcanic field,Radiocarbon,D7
1401-061,Jocotitlan,Mexico,Mexico,19.724,-99.757,3900,Stratovolcano,Radiocarbon,D6
1401-062,Jocotitlan,Mexico,Mexico,19.733,-99.758,3900,Stratovolcano,Radiocarbon,D6
1202-19-,Jordan Craters,United States,US-Oregon,43.03,-117.42,1473,Volcanic field,Holocene,U
1404-101,"Joya, La",Nicaragua,Nicaragua,11.92,-85.98,300,Fissure vent,Holocene,U
0601-22=,Kaba,Indonesia,Sumatra,-3.52,102.62,1952,Stratovolcano,Historical,D2
0104-03-,Kabargin Oth Group,Georgia,Georgia,42.55,44,3650,Cinder cone,Holocene,U
0501-002,Kadovar,Papua New Guinea,New Guinea-NE of,-3.62,144.62,365,Stratovolcano,Holocene,U
1101-26-,Kagamil,United States,Aleutian Is,52.97,-169.72,893,Stratovolcano,Historical,D2
1102-25-,Kaguyak,United States,Alaska Peninsula,58.62,-154.05,901,Stratovolcano,Holocene,D7
0804-097,Kaikata Seamount,Japan,Volcano Is-Japan,26.667,141,-162,Submarine volcano,Fumarolic,U
0401-01=,Kaikohe-Bay of Islands,New Zealand,New Zealand,-35.3,173.9,388,Volcanic field,Radiocarbon,D6
1000-62-,Kaileney,Russia,Kamchatka,57.8,160.67,1582,Shield volcano,Holocene,U
0804-10=,Kaitoku Seamount,Japan,Volcano Is-Japan,26.122,141.102,-10,Submarine volcano,Historical,D1
0701-061,Kalatungan,Philippines,Mindanao-Philippines,7.95,124.8,2824,Stratovolcano,Holocene,U
1000-01=,Kambalny,Russia,Kamchatka,51.3,156.87,2156,Stratovolcano,Holocene,U
1000-251,Kamen,Russia,Kamchatka,56.02,160.593,4585,Stratovolcano,Holocene,U
0505-052,Kana Keoki,Solomon Is.,Solomon Is-SW Pacifi,-8.75,157.03,-700,Submarine volcano,Holocene,U
1101-11-,Kanaga,United States,Aleutian Is,51.92,-177.17,1307,Stratovolcano,Historical,D1
0702-02=,Kanlaon,Philippines,Philippines-C,10.412,123.132,2435,Stratovolcano,Historical,D1
0403-061,Kao,Tonga,Tonga-SW Pacific,-19.667,-175.033,1030,Stratovolcano,Holocene,U
0103-011,Karacalidag,Turkey,Turkey,37.67,39.83,1957,Shield volcano,Holocene,U
0603-16=,"Karaha, Kawah",Indonesia,Java,-7.12,108.08,1155,Fumarole field,Fumarolic,U
0603-02=,Karang,Indonesia,Java,-6.27,106.042,1778,Stratovolcano,Holocene,Unknown
0607-02=,Karangetang [Api Siau],Indonesia,Sangihe Is-Indonesia,2.78,125.48,1784,Stratovolcano,Historical,D1
0103-001,Karapinar Field,Turkey,Turkey,37.67,33.65,1302,Cinder cone,Holocene,D7
0203-04-,Karisimbi,"Congo, DRC",Africa-C,-1.5,29.45,4507,Stratovolcano,Holocene,U
0501-03=,Karkar,Papua New Guinea,New Guinea-NE of,-4.649,145.964,1839,Stratovolcano,Historical,D1
0900-35=,Karpinsky Group,Russia,Kuril Is,50.13,155.37,1345,Cone,Historical,D2
0103-05-,Kars Plateau,Turkey,Turkey,40.75,42.9,3000,Volcanic field,Holocene,Unknown
0303-01=,Karthala,Comoros,Indian O-W,-11.75,43.38,2361,Shield volcano,Historical,D1
1000-13=,Karymsky,Russia,Kamchatka,54.05,159.43,1536,Stratovolcano,Historical,D1
1101-13-,Kasatochi,United States,Aleutian Is,52.18,-175.5,314,Stratovolcano,Historical,D1
0104-02-,Kasbek,Georgia,Georgia,42.7,44.5,5050,Stratovolcano,Tephrochronology,D7
0804-134,Kasuga,Japan,Volcano Is-Japan,21.77,143.72,-558,Submarine volcano,Uncertain,Unknown
1702-03=,Katla,Iceland,Iceland-S,63.63,-19.05,1512,Subglacial volcano,Historical,D2
1102-17-,Katmai,United States,Alaska Peninsula,58.27,-154.98,2047,Stratovolcano,Historical,D2
0203-005,Katunga,Uganda,Africa-C,-0.47,30.18,1707,Tuff cone,Holocene,U
0203-003,Katwe-Kikorongo Field,Uganda,Africa-C,-0.08,29.92,1067,Tuff cone,Holocene,U
0505-06=,Kavachi,Solomon Is.,Solomon Is-SW Pacifi,-9.02,157.95,-20,Submarine volcano,Historical,D1
0603-281,Kawi-Butak,Indonesia,Java,-7.92,112.45,2651,Stratovolcano,Holocene,U
1000-50-,Kebeney,Russia,Kamchatka,57.1,159.93,1527,Shield volcano,Holocene,U
1000-41-,Kekurny,Russia,Kamchatka,56.4,158.85,1377,Shield volcano,Holocene,U
0604-14=,Kelimutu,Indonesia,Lesser Sunda Is,-8.758,121.83,1640,Complex volcano,Historical,D1
1000-041,Kell,Russia,Kamchatka,51.65,157.35,900,Stratovolcano,Holocene,U
1005-02-,Keluo Group,China,China-E,49.37,125.92,670,Pyroclastic cone,Holocene,U
0603-28=,Kelut,Indonesia,Java,-7.93,112.308,1731,Stratovolcano,Historical,D1
0603-11=,Kendang,Indonesia,Java,-7.23,107.72,2608,Stratovolcano,Holocene,U
0304-02=,Kerguelen Islands,French Southern & Antarctic Lands,Indian O-S,-49.58,69.5,1840,Stratovolcano,Holocene,U
0601-17=,Kerinci,Indonesia,Sumatra,-1.814,101.264,3800,Stratovolcano,Historical,D1
0900-20=,Ketoi,Russia,Kuril Is,47.35,152.475,1172,Stratovolcano,Historical,D2
1000-272,Khangar,Russia,Kamchatka,54.75,157.38,2000,Stratovolcano,Radiocarbon,D7
1003-02-,Khanuy Gol,Mongolia,Mongolia,48.67,102.75,1886,Volcanic field,Holocene,U
0900-30=,Kharimkotan,Russia,Kuril Is,49.12,154.508,1145,Stratovolcano,Historical,D2
0301-06=,"Khaybar, Harrat",Saudi Arabia,Arabia-W,25,39.92,2093,Volcanic field,Historical,D6
1000-053,Khodutka,Russia,Kamchatka,52.063,157.703,2090,Stratovolcano,Radiocarbon,D7
1102-12-,Kialagvik,United States,Alaska Peninsula,57.38,-156.75,1575,Stratovolcano,Holocene,U
0603-03=,Kiaraberes-Gagak,Indonesia,Java,-6.73,106.65,1511,Stratovolcano,Historical,D2
1600-16=,Kick-'em-Jenny,Netherlands,W Indies,12.3,-61.63,-177,Submarine volcano,Historical,D1
0202-17=,Kieyo,Tanzania,Africa-E,-9.23,33.78,2175,Stratovolcano,Historical,D3
0802-06=,Kikai,Japan,Ryukyu Is,30.78,130.28,717,Caldera,Historical,D1
1000-18=,Kikhpinych,Russia,Kamchatka,54.487,160.253,1552,Stratovolcano,Radiocarbon,D5
1302-01-,Kilauea,United States,Hawaiian Is,19.425,-155.292,1222,Shield volcano,Historical,D1
0202-15=,Kilimanjaro,Tanzania,Africa-E,-3.07,37.35,5895,Stratovolcano,Holocene,U
1000-551,Kinenin,Russia,Kamchatka,57.35,160.967,583,Maar,Radiocarbon,D6
0802-09=,Kirishima,Japan,Kyushu-Japan,31.93,130.87,1700,Shield volcano,Historical,D1
0301-071,"Kishb, Harrat",Saudi Arabia,Arabia-W,22.8,41.38,1475,Volcanic field,Holocene,U
1101-02-,Kiska,United States,Aleutian Is,52.1,177.6,1220,Stratovolcano,Historical,D1
0804-121,Kita-Fukutokutai,Japan,Volcano Is-Japan,24.414,141.419,-73,Submarine volcano,Holocene,U1
0804-11=,Kita-Iwo-jima,Japan,Volcano Is-Japan,25.43,141.23,792,Stratovolcano,Historical,D2
1000-23=,Kizimen,Russia,Kamchatka,55.13,160.32,2485,Stratovolcano,Historical,D2
0606-12=,Klabat,Indonesia,Sulawesi-Indonesia,1.47,125.03,1995,Stratovolcano,Fumarolic,U
1000-26=,Kliuchevskoi,Russia,Kamchatka,56.057,160.638,4835,Stratovolcano,Historical,D1
1705-01=,Kolbeinsey Ridge,Iceland,Iceland-N of,66.67,-18.5,0,Submarine volcano,Historical,D4
1000-221,Kolkhozhny,Russia,Kamchatka,55.07,160.77,2161,Stratovolcano,Holocene,U
0900-12=,Kolokol Group,Russia,Kuril Is,46.042,150.05,1328,Somma volcano,Historical,D1
0805-02=,Komaga-take,Japan,Hokkaido-Japan,42.07,140.68,1140,Stratovolcano,Historical,D1
1000-22=,Komarov,Russia,Kamchatka,55.032,160.72,2070,Stratovolcano,Holocene,U
0201-20-,Kone,Ethiopia,Africa-NE,8.8,39.692,1619,Caldera,Historical,D3
1101-14-,Koniuji,United States,Aleutian Is,52.22,-175.13,272,Stratovolcano,Uncertain,Unknown
1104-03-,Kookooligit Mountains,United States,Alaska-W,63.6,-170.43,673,Shield volcano,Holocene,U
0503-003,Koranga,Papua New Guinea,New Guinea,-7.33,146.708,0,Explosion crater,Holocene,U
0201-32-,Korath Range,Ethiopia,Africa-NE,5.1,35.88,912,Tuff cone,Holocene,Unknown
0405-02-,Koro,Fiji,Fiji Is-SW Pacific,-17.32,179.4,522,Cinder cone,Holocene,Unknown
0202-054,Korosi,Kenya,Africa-E,0.77,36.12,1446,Shield volcano,Holocene,U
1000-09=,Koryaksky,Russia,Kamchatka,53.32,158.688,3456,Stratovolcano,Historical,D2
1000-02=,Koshelev,Russia,Kamchatka,51.357,156.75,1812,Stratovolcano,Historical,D5
0205-021,"Koussi, Emi",Chad,Africa-N,19.8,18.53,3415,Stratovolcano,Holocene,U
0804-03=,Kozu-shima,Japan,Izu Is-Japan,34.22,139.15,574,Lava dome,Historical,D6
1000-33-,Kozyrevsky,Russia,Kamchatka,55.58,158.38,2016,Shield volcano,Holocene,U
1703-08=,Krafla,Iceland,Iceland-NE,65.73,-16.78,650,Caldera,Historical,D1
1000-40-,Krainy,Russia,Kamchatka,56.37,159.03,1554,Shield volcano,Holocene,U
1702-09-,Krakagiger,Iceland,Iceland-S,63.98,-19.7,1491,Stratovolcano,Historical,D1
0602-00=,Krakatau,Indonesia,Indonesia,-6.102,105.423,813,Caldera,Historical,D1
1000-19=,Krasheninnikov,Russia,Kamchatka,54.593,160.273,1856,Caldera,Radiocarbon,D5
1701-17-,Kristnitokugigar,Iceland,Iceland-SW,63.98,-21.42,301,Crater rows,Historical,Unknown
1701-03=,Krisuvik,Iceland,Iceland-SW,63.93,-22.1,379,Crater rows,Historical,D6
1000-20=,Kronotsky,Russia,Kamchatka,54.753,160.527,3528,Stratovolcano,Historical,D2
1000-05=,Ksudach,Russia,Kamchatka,51.8,157.53,1079,Stratovolcano,Historical,D2
0802-041,Kuchino-shima,Japan,Ryukyu Is,29.97,129.93,627,Stratovolcano,Holocene,D7
0802-043,Kuchino-shima,Japan,Ryukyu Is,29.964,129.928,628,Stratovolcanoes,Radiocarbon,D6
0802-05=,Kuchinoerabu-jima,Japan,Ryukyu Is,30.43,130.22,649,Stratovolcano,Historical,D1
0801-031,Kuei-Shan-Tao,Taiwan,Taiwan,24.85,121.92,401,Stratovolcano,Pleistocene-Fumarol,Q
0802-12=,Kuju Group,Japan,Kyushu-Japan,33.08,131.25,1788,Stratovolcano,Historical,D1
1102-23-,Kukak,United States,Alaska Peninsula,58.47,-154.35,2040,Stratovolcano,Fumarolic,U
0103-00-,Kula,Turkey,Turkey,38.58,28.52,750,Cinder cone,Holocene,U
1000-37-,Kulkev,Russia,Kamchatka,56.37,158.37,915,Shield volcano,Holocene,U
1004-03-,Kunlun Volc Group,China,China-W,35.52,80.2,5808,Pyroclastic cone,Historical,D2
1102-06-,Kupreanof,United States,Alaska Peninsula,56.02,-159.8,1895,Stratovolcano,Historical,D1
0803-21=,Kurikoma,Japan,Honshu-Japan,38.95,140.78,1628,Stratovolcano,Historical,D2
1000-023,Kurile Lake,Russia,Kamchatka,51.45,157.12,104,Caldera,Radiocarbon,D7
0804-041,Kurose Hole,Japan,Izu Is-Japan,33.4,139.68,-107,Submarine volcano,Holocene,Unknown
0804-042,Kurose Hole,Japan,Izu Is-Japan,33.4,139.683,-107,Submarine volcano,Holocene?,?
0201-12=,Kurub,Ethiopia,Africa-NE,11.88,41.208,625,Shield volcano,Holocene,U
0803-12=,Kusatsu-Shirane,Japan,Honshu-Japan,36.62,138.55,2176,Stratovolcano,Historical,D1
0805-08=,Kutcharo,Japan,Hokkaido-Japan,43.55,144.43,1000,Caldera,Tephrochronology,D6
0805-034,Kuttara,Japan,Hokkaido-Japan,42.5,141.18,581,Stratovolcano,Tephrochronology,D3
0205-04-,Kutum Volc Field,Sudan,Africa-N,14.5,25.8,0,Scoria cone,Holocene,Unknown
0507-07=,Kuwae,Vanuatu,Vanuatu-SW Pacific,-16.829,168.536,-2,Caldera,Historical,D1
1703-05=,Kverkfjoll,Iceland,Iceland-NE,64.65,-16.72,1920,Stratovolcano,Historical,D1
0203-002,Kyatwa Volc Field,Uganda,Africa-C,0.45,30.25,1430,Tuff cone,Holocene,Unknown
1803-01-,La Palma,Spain,Canary Is,28.58,-17.83,2426,Stratovolcano,Historical,D1
1404-133,"Lajas, Las",Nicaragua,Nicaragua,12.3,-85.73,926,Shield volcano,Holocene,Unknown
1702-15-,Lakagigar,Sweden,Iceland-NE,64.42,17.33,1725,Caldera,Historical,D1
1702-10-,Lambafit,Iceland,Iceland-S,64.08,-19.4,550,Crater rows,Historical,D1
0503-01=,Lamington,Papua New Guinea,New Guinea,-8.95,148.15,1680,Stratovolcano,Historical,D2
0603-32=,Lamongan,Indonesia,Java,-8,113.342,1651,Stratovolcano,Historical,D3
0502-01=,Langila,Papua New Guinea,New Britain-SW Pac,-5.525,148.42,1330,Complex volcano,Historical,D1
1701-08=,Langjokull,Iceland,Iceland-SW,64.75,-19.98,1360,Stratovolcano,Radiocarbon,D6
1507-122,Lanin,Argentina,Chile-C,-39.633,-71.5,3747,Stratovolcano,Holocene,U
1803-06-,Lanzarote,Spain,Canary Is,29.03,-13.63,670,Fissure vent,Historical,D3
0101-001,Larderello,Italy,Italy,43.25,10.87,500,Explosion crater,Historical,D6
1505-10=,Lascar,Chile,Chile-N,-23.37,-67.73,5592,Stratovolcano,Historical,D1
1203-08-,Lassen Volc Center,United States,US-California,40.492,-121.508,3187,Stratovolcano,Historical,D2
1505-12=,Lastarria,Chile,Chile-N,-25.17,-68.5,5697,Stratovolcano,Holocene,U
0403-09=,Late,Tonga,Tonga-SW Pacific,-18.806,-174.65,518,Stratovolcano,Historical,D3
0701-05=,Latukan,Philippines,Mindanao-Philippines,7.65,124.47,2158,Stratovolcano,Holocene,U
1508-06=,Lautaro,Chile,Chile-S,-49.02,-73.55,3380,Stratovolcano,Historical,D2
1203-19-,Lavic Lake,United States,US-California,34.75,-116.625,1495,Volcanic field,Holocene,U
0603-26=,Lawu,Indonesia,Java,-7.625,111.192,3265,Stratovolcano,Holocene,U
0705-01-,Leizhou Bandao,China,SE Asia,20.83,109.78,259,Volcanic field,Holocene,U
0202-12=,"Lengai, Ol Doinyo",Tanzania,Africa-E,-2.751,35.902,2890,Stratovolcano,Historical,D1
0701-031,Leonard Range,Philippines,Mindanao-Philippines,7.393,126.397,1190,Stratovolcano,Holocene,U
0604-20=,Leroboleng,Indonesia,Lesser Sunda Is,-8.358,122.842,1117,Complex volcano,Historical,D3
1900-12=,Leskov Island,Antarctica,Antarctica,-56.67,-28.13,190,Stratovolcano,Fumarolic,U
1000-54-,Leutongey,Russia,Kamchatka,57.3,159.83,1333,Shield volcano,Holocene,U
1200-05-,Level Mountain,Canada,Canada,58.42,-131.35,2190,Shield volcano,Holocene,U
0604-18=,Lewotobi,Indonesia,Lesser Sunda Is,-8.53,122.775,1703,Stratovolcano,Historical,D1
0604-19=,Lewotobi Perempuan,Indonesia,Lesser Sunda Is,-8.575,122.78,1703,Stratovolcano,Historical,D1
0604-23=,Lewotolo,Indonesia,Lesser Sunda Is,-8.272,123.505,1423,Stratovolcano,Historical,D2
1505-011,Lexone,Chile,Chile-N,-17.87,-69.48,5340,Lava dome,Holocene,U
0201-172,Liado Hayk Field,Ethiopia,Africa-NE,9.57,40.28,878,Maar,Holocene,Unknown
1600-03=,Liamuiga,St. Kitts & Nevis,W Indies,17.37,-62.8,1156,Stratovolcano,Radiocarbon,D6
1505-092,Licancabur,Chile,Chile-N,-22.83,-67.88,5916,Stratovolcano,Holocene,U
0504-01=,Lihir,Papua New Guinea,New Ireland-SW Pacif,-3.125,152.642,700,Volcanic complex,Holocene,U
1900-06=,Lindenberg Island,Antarctica,Antarctica,-65.03,-60.05,368,Pyroclastic cone,Uncertain,Unknown
0101-041,Lipari,Italy,Italy,38.48,14.95,602,Stratovolcano,Historical,D6
0101-042,Lipari,Italy,Italy,38.483,14.95,602,Stratovolcanoes,Radiocarbon,D6
1101-05-,Little Sitkin,United States,Aleutian Is,51.95,178.53,1188,Stratovolcano,Historical,D3
1700-03=,Ljosufjoll,Iceland,Iceland-W,64.87,-22.23,988,Fissure vent,Anthropology,D6
1507-11=,Llaima,Chile,Chile-C,-38.692,-71.729,3125,Stratovolcano,Historical,D1
1505-11=,Llullaillaco,Argentina,Chile-N,-24.72,-68.53,6739,Stratovolcano,Historical,D3
1302-00-,Loihi,United States,Hawaiian Is,18.92,-155.27,-975,Submarine volcano,Historical,D1
0606-10=,Lokon-Empung,Indonesia,Sulawesi-Indonesia,1.358,124.792,1580,Stratovolcano,Historical,D1
0502-071,Lolo,Papua New Guinea,New Britain-SW Pac,-5.47,150.5,805,Stratovolcano,Holocene,Unknown
0502-13=,Lolobau,Papua New Guinea,New Britain-SW Pac,-4.92,151.158,858,Caldera,Historical,D2
0505-03=,Loloru,Papua New Guinea,Bougainville-SW Paci,-6.52,155.62,1887,Pyroclastic shield,Radiocarbon,D7
0900-351,Lomonosov Group,Russia,Kuril Is,50.25,155.43,1681,Cinder cone,Holocene,U
0501-05=,Long Island,Papua New Guinea,New Guinea-NE of,-5.358,147.12,1280,Complex volcano,Historical,D1
1507-063,"Longavi, Nevado de",Chile,Chile-C,-36.193,-71.161,3242,Stratovolcano,Holocene,U
1005-05-,Longgang Group,China,China-E,42.33,126.5,1000,Cinder cone,Radiocarbon,D4
0202-10=,Longonot,Kenya,Africa-E,-0.92,36.45,2776,Stratovolcano,Anthropology,D3
1507-10=,Lonquimay,Chile,Chile-C,-38.377,-71.58,2865,Stratovolcano,Historical,D1
0507-05=,Lopevi,Vanuatu,Vanuatu-SW Pacific,-16.507,168.346,1413,Stratovolcano,Historical,D1
0705-09-,Lower Chindwin,Myanmar,SE Asia,22.28,95.1,385,Volcanic field,Holocene,Unknown
0601-111,Lubukraya,Indonesia,Sumatra,1.478,99.209,1862,Stratovolcano,Holocene,Unknown
0601-24=,"Lumut Balai, Bukit",Indonesia,Sumatra,-4.22,103.62,2055,Stratovolcano,Fumarolic,U
0301-04-,"Lunayyir, Harrat",Saudi Arabia,Arabia-W,25.17,37.75,1370,Volcanic field,Historical,D6
0603-321,Lurus,Indonesia,Java,-7.7,113.58,539,Complex volcano,Holocene,Unknown
0900-041,Lvinaya Past,Russia,Kuril Is,44.62,147,528,Stratovolcano,Radiocarbon,D7
1700-02=,Lysuholl,Iceland,Iceland-W,64.87,-23.25,540,Pyroclastic cone,Holocene,U
0201-111,Ma Alalta,Ethiopia,Africa-NE,13.02,40.2,1815,Stratovolcano,Holocene,U
1508-056,Maca,Chile,Chile-S,-45.1,-73.2,2960,Stratovolcano,Holocene,U
0402-021,Macauley Island,New Zealand,Kermadec Is,-30.2,-178.47,238,Caldera,Holocene,U
1303-08-,Macdonald,Antarctica,Austral Is-C Pacific,-28.98,-140.25,-50,Submarine volcano,Historical,D1
1501-04=,"Machin, Cerro",Colombia,Colombia,4.48,-75.4,2650,Stratovolcano,Radiocarbon,D6
1802-12-,Madeira,Portugal,Azores,32.733,-16.967,1862,Shield volcano,Radiocarbon,D7
1404-13-,Maderas,Nicaragua,Nicaragua,11.446,-85.515,1394,Stratovolcano,Holocene,U
0503-004,Madilogo,Papua New Guinea,New Guinea,-9.2,147.57,850,Pyroclastic cone,Holocene,U
0702-01=,Magaso,Philippines,Philippines-C,9.258,123.175,1904,Stratovolcano,Holocene,U
1102-15-,Mageik,United States,Alaska Peninsula,58.2,-155.25,2165,Stratovolcano,Historical,D2
0702-07=,Mahagnoa,Philippines,Philippines-C,10.872,124.853,800,Stratovolcano,Fumarolic,U
0606-11=,Mahawu,Indonesia,Sulawesi-Indonesia,1.358,124.858,1324,Stratovolcano,Historical,D1
1507-021,Maipo,Argentina,Chile-C,-34.161,-69.833,5264,Caldera,Historical,D2
0701-04=,Makaturing,Philippines,Mindanao-Philippines,7.647,124.32,1940,Stratovolcano,Holocene,U
0608-07=,Makian,Indonesia,Halmahera-Indonesia,0.32,127.4,1357,Stratovolcano,Historical,D1
1101-31-,Makushin,United States,Aleutian Is,53.9,-166.93,2036,Stratovolcano,Historical,D1
0603-081,Malabar,Indonesia,Java,-7.13,107.65,2343,Stratovolcano,Holocene,Unknown
0603-292,Malang Plain,Indonesia,Java,-8.02,112.68,680,Maar,Holocene,U
0703-04=,Malinao,Philippines,Luzon-Philippines,13.422,123.597,1548,Stratovolcano,Fumarolic,U1
1401-091,"Malinche, La",Mexico,Mexico,19.23,-98.03,4503,Stratovolcano,Radiocarbon,D7
0701-071,Malindang,Philippines,Mindanao-Philippines,8.22,123.63,2435,Stratovolcano,Holocene,U
0703-044,Malindig,Philippines,Luzon-Philippines,13.24,122.018,1157,Stratovolcano,Hot Springs,U
0601-121,Malintang,Indonesia,Sumatra,0.467,99.667,1983,Stratovolcano,Holocene,U
0201-102,Mallahle,Ethiopia,Africa-NE,13.27,41.65,1875,Stratovolcano,Holocene,Unknown
1000-29-,Maly Payalpan,Russia,Kamchatka,55.82,157.98,1802,Shield volcano,Holocene,U
1000-14=,Maly Semiachik,Russia,Kamchatka,54.13,159.67,1560,Caldera,Historical,D2
0503-021,Managlase Plateau,Papua New Guinea,New Guinea,-9.08,148.33,1342,Volcanic field,Anthropology,U
0501-02=,Manam,Papua New Guinea,New Guinea-NE of,-4.1,145.061,1807,Stratovolcano,Historical,D1
1703-15-,Manareyjar,Iceland,Iceland-N,66.3,-17.1,0,Submarine volcano,Historical,D3
0201-120,Manda Gargori,Ethiopia,Ethiopia,11.75,41.483,,Fissure vents,Anthropology,U
0201-115,Manda Hararo,Ethiopia,Africa-NE,12.17,40.82,600,Shield volcano,Holocene,U
0201-122,Manda-Inakir,Ethiopia,Africa-NE,12.38,42.2,600,Fissure vent,Historical,D2
0702-03=,Mandalagan,Philippines,Philippines-C,10.615,123.22,1879,Stratovolcano,Holocene,U
0204-02-,Manengouba,Cameroon,Africa-W,5.03,9.83,2411,Stratovolcano,Holocene,U
0605-08=,Manuk,Pacific Ocean,Banda Sea,-5.53,130.292,282,Stratovolcano,Fumarolic,U
0205-006,Manzaz Volc Field,Algeria,Africa-N,23.917,5.833,1672,Scoria cones,Holocene,U
0703-06=,Maquiling,Philippines,Luzon-Philippines,14.13,121.2,1090,Stratovolcano,Holocene,U
0601-14=,Marapi,Indonesia,Sumatra,-0.381,100.473,2891,Complex volcano,Historical,D1
1503-08=,Marchena,Ecuador,Galapagos,0.33,-90.47,343,Shield volcano,Historical,D1
0608-062,Mare,Indonesia,Halmahera-Indonesia,0.57,127.4,308,Unknown,Holocene,U
0301-10-,"Marha, Jabal el-",Yemen,Arabia-S,15.28,44.22,2650,Tuff cone,Holocene,U
0304-07-,Marion Island,South Africa,Indian O-S,-46.9,37.75,1230,Shield volcano,Historical,D1
0703-081,Mariveles,Philippines,Luzon-Philippines,14.5,120.5,1420,Stratovolcano,Radiocarbon,D7
1207-04-,Markagunt Plateau,United States,US-Utah,37.58,-112.67,2840,Volcanic field,Dendrochronology,D6
0401-061,Maroa,New Zealand,New Zealand,-38.42,176.08,1156,Caldera,Tephrochronology,D6
0205-03-,"Marra, Jebel",Sudan,Africa-N,12.95,24.27,3042,Volcanic field,Radiocarbon,D7
0202-021,Marsabit,Kenya,Africa-E,2.32,37.97,1707,Shield volcano,Holocene,Unknown
1102-14-,Martin,United States,Alaska Peninsula,58.17,-155.35,1860,Stratovolcano,Historical,D2
0703-031,Masaraga,Philippines,Luzon-Philippines,13.32,123.6,1328,Stratovolcano,Holocene,U
1404-10=,Masaya,Nicaragua,Nicaragua,11.984,-86.161,635,Caldera,Historical,D1
1401-031,Mascota Volc Field,Mexico,Mexico,20.62,-104.83,2540,Shield volcano,Holocene,U
1000-001,Mashkovtsev,Russia,Kamchatka,51.1,156.72,503,Stratovolcano,Holocene,U
0805-081,Mashu,Japan,Hokkaido-Japan,43.57,144.57,855,Caldera,Radiocarbon,D6
0201-105,Mat Ala,Ethiopia,Africa-NE,13.1,41.15,523,Shield volcano,Holocene,U
0508-01=,Matthew Island,Pacific Ocean,SW Pacific,-22.33,171.32,177,Stratovolcano,Historical,D2
0701-02=,Matutum,Philippines,Mindanao-Philippines,6.37,125.108,2293,Stratovolcano,Holocene,U
0804-143,Maug Islands,United States,Mariana Is-C Pacific,20.017,145.217,227,Stratovolcano,Fumarolic,U
1507-061,"Maule, Laguna del",Chile,Chile-C,-36.02,-70.58,3092,Stratovolcano,Holocene,U
1302-03-,Mauna Kea,United States,Hawaiian Is,19.82,-155.47,4206,Shield volcano,Radiocarbon,D7
1302-02=,Mauna Loa,United States,Hawaiian Is,19.475,-155.608,4170,Shield volcano,Historical,D1
0203-01=,May-ya-moto,"Congo, DRC",Africa-C,-0.93,29.33,950,Fumarole field,Fumarolic,Unknown
0703-03=,Mayon,Philippines,Luzon-Philippines,13.257,123.685,2462,Stratovolcano,Historical,D1
0401-021,Mayor Island,New Zealand,New Zealand,-37.28,176.25,355,Shield volcano,Radiocarbon,D7
0304-011,McDonald Islands,Indian Ocean,Indian O-S,-53.03,72.6,186,Complex volcano,Historical,D1
1200-18-,Meager,Canada,Canada,50.63,-123.5,2680,Complex volcano,Radiocarbon,D7
1203-02-,Medicine Lake,United States,US-California,41.58,-121.57,2412,Shield volcano,Radiocarbon,D6
0900-10=,Medvezhia,Russia,Kuril Is,45.38,148.83,1124,Somma volcano,Historical,D1
0201-33-,Mega Basalt Field,Kenya,Africa-E,4.08,37.42,1067,Pyroclastic cone,Holocene,U
0803-262,Megata,Japan,Honshu-Japan,39.95,139.73,291,Maar,Tephrochronology,D7
1303-06-,Mehetia,France,Society Is-C Pacific,-17.87,-148.07,435,Stratovolcano,Anthropology,U
0205-05-,Meidob Volc Field,Sudan,Africa-N,15.32,26.47,2000,Scoria cone,Holocene,D7
1900-015,Melbourne,Antarctica,Antarctica,-74.35,164.7,2732,Stratovolcano,Tephrochronology,D4
1508-053,Melimoyu,Chile,Chile-S,-44.08,-72.88,2400,Stratovolcano,Holocene,U
0900-02=,Mendeleev,Russia,Kuril Is,43.98,145.7,887,Stratovolcano,Historical,D3
0202-06=,Menengai,Kenya,Africa-E,-0.2,36.07,2278,Shield volcano,Tephrochronology,D7
1508-055,Mentolat,Chile,Chile-S,-44.67,-73.08,1660,Stratovolcano,Holocene,Unknown
0603-25=,Merapi,Indonesia,Java,-7.542,110.442,2947,Stratovolcano,Historical,D1
0603-24=,Merbabu,Indonesia,Java,-7.45,110.43,3145,Stratovolcano,Historical,D4
0507-021,Mere Lava,Vanuatu,Vanuatu-SW Pacific,-14.45,168.05,1028,Stratovolcano,Holocene,U
0202-16=,Meru,Tanzania,Africa-E,-3.25,36.75,4565,Stratovolcano,Historical,D2
0102-02=,Methana,Greece,Greece,37.615,23.336,760,Lava dome,Historical,D7
0403-07=,Metis Shoal,Tonga,Tonga-SW Pacific,-19.18,-174.87,43,Submarine volcano,Historical,D1
1000-57-,Mezhdusopochny,Russia,Kamchatka,57.47,160.25,1641,Shield volcano,Holocene,U
1900-09=,Michael,Antarctica,Antarctica,-57.78,-26.45,990,Stratovolcano,Historical,D3
1401-06=,Michoacan-Guanajuato,Mexico,Mexico,19.48,-102.25,3860,Cinder cone,Historical,D2
1600-10=,Micotrin,Dominica,W Indies,15.33,-61.33,1387,Lava dome,Historical,D3
1003-05-,Middle Gobi,Mongolia,Mongolia,45.28,106.7,1120,Cinder cone,Holocene,Unknown
1200-12-,Milbanke Sound Group,Canada,Canada,52.5,-128.73,335,Cinder cone,Holocene,U
0900-161,Milne,Russia,Kuril Is,46.82,151.78,1540,Somma volcano,Holocene,U
0102-03=,Milos,Greece,Greece,36.699,24.439,751,Stratovolcano,Holocene,U
0804-131,Minami-Hiyoshi,Japan,Volcano Is-Japan,23.507,141.905,-30,Submarine volcano,Historical,D1
1508-04=,Minchinmavida,Chile,Chile-S,-42.78,-72.43,2404,Stratovolcano,Historical,D3
1405-03=,Miravalles,Costa Rica,Costa Rica,10.748,-85.153,2028,Stratovolcano,Historical,D2
1504-01=,"Misti, El",Peru,Peru,-16.294,-71.409,5822,Stratovolcano,Historical,D4
0804-04=,Miyake-jima,Japan,Izu Is-Japan,34.08,139.53,815,Stratovolcano,Historical,D1
1507-13=,Mocho-Choshuenco,Chile,Chile-C,-39.927,-72.027,2422,Stratovolcano,Historical,D2
1101-111,Moffett,United States,Aleutian Is,51.93,-176.75,1196,Stratovolcano,Holocene,U
1502-003,Mojanda,Ecuador,Ecuador,0.13,-78.27,4263,Stratovolcano,Holocene,Unknown
1502-005,Mojanda,Ecuador,Ecuador,0.133,-78.267,4263,Stratovolcanoes,Holocene?,?
0804-094,Mokuyo Seamount,Japan,Izu Is-Japan,28.317,140.567,-920,Submarine volcano,Fumarolic,U
1404-11=,Mombacho,Nicaragua,Nicaragua,11.826,-85.968,1344,Stratovolcano,Holocene,U
1404-09=,Momotombo,Nicaragua,Nicaragua,12.422,-86.54,1297,Stratovolcano,Historical,D2
1802-11=,Monaco Bank,Portugal,Azores,37.6,-25.88,-197,Submarine volcano,Historical,D2
1507-041,Mondaca,Chile,Chile-C,-35.464,-70.8,2048,Lava dome,Holocene,U
1203-12-,Mono Craters,United States,US-California,37.88,-119,2796,Lava dome,Radiocarbon,D6
1203-11-,Mono Lake Volc Field,United States,US-California,38,-119.03,2121,Cinder cone,Tephrochronology,D4
0402-05-,Monowai Seamount,New Zealand,Kermadec Is,-25.887,-177.188,-100,Submarine volcano,Historical,D1
1900-081,Montagu Island,Antarctica,Antarctica,-58.417,-26.333,1370,Shield volcano,Historical,D1
1900-020,"Morning, Mt.",Antarctica,Antarctica,-78.5,163.533,2723,Shield volcano,Holocene,U
0608-063,Moti,Indonesia,Halmahera-Indonesia,0.45,127.4,950,Stratovolcano,Holocene,U
0507-001,Motlav,Vanuatu,Vanuatu-SW Pacific,-13.67,167.67,411,Stratovolcano,Holocene,U
1303-05-,Moua Pihaa,France,Society Is-C Pacific,-18.32,-148.67,-180,Submarine volcano,Seismicity,U
0201-123,Mousa Alli,Djibouti,Africa-NE,12.47,42.4,2028,Stratovolcano,Holocene,U
1402-13-,Moyuta,Guatemala,Guatemala,14.03,-90.1,1662,Stratovolcano,Hot Springs,U
0203-06-,Muhavura,Uganda,Africa-C,-1.38,29.67,4127,Stratovolcano,Holocene,U
1702-08-,Mundafell,Iceland,Iceland-S,63.98,-19.7,1491,Stratovolcano,Historical,D1
0502-021,Mundua,Papua New Guinea,New Britain-SW Pac,-4.63,149.35,179,Complex volcano,Holocene,U
0603-251,Muria,Indonesia,Java,-6.617,110.883,1625,Stratovolcano,Holocene,D7
0503-02=,Musa River,Papua New Guinea,New Guinea,-9.308,148.13,808,Hydrothermal field,Hot Springs,Unknown
1000-06=,Mutnovsky,Russia,Kamchatka,52.453,158.195,2322,Complex volcano,Historical,D2
0804-061,Myojun Knoll,Japan,Izu Is-Japan,32.1,139.85,360,Submarine volcano,Holocene,Unknown
0803-10=,Myoko,Japan,Honshu-Japan,36.88,138.12,2446,Stratovolcano,Radiocarbon,D7
0804-211,NW Rota-1,United States,Mariana Is-C Pacific,14.601,144.775,-517,Submarine volcano,Historical,D1
0201-101,Nabro,Eritrea,Africa-NE,13.37,41.7,2218,Stratovolcano,Holocene,Unknown
0405-03-,Nabukelevu,Tonga,Fiji Is-SW Pacific,-19.117,177.983,805,Lava domes,Radiocarbon,D5
0802-04=,Nakano-shima,Japan,Ryukyu Is,29.85,129.87,979,Stratovolcano,Historical,D2
0202-04-,Namarunu,Kenya,Africa-E,1.9,36.27,817,Shield volcano,Tephrochronology,D7
0803-141,Nantai,Japan,Honshu-Japan,36.77,139.5,2484,Stratovolcano,Holocene,U
1401-095,Naolinco Volc Field,Mexico,Mexico,19.67,-96.75,2000,Pyroclastic cone,Holocene,U
0600-001,Narcondum,India,Andaman Is-Indian O,13.43,94.25,710,Stratovolcano,Holocene,U
0803-20=,Narugo,Japan,Honshu-Japan,38.73,140.73,462,Caldera,Historical,D6
0803-15=,Nasu,Japan,Honshu-Japan,37.12,139.97,1917,Stratovolcano,Historical,D2
0703-082,Natib,Philippines,Luzon-Philippines,14.705,120.4,1287,Stratovolcano,Holocene,Unknown
1200-14-,Nazko,Canada,Canada,52.9,-123.73,1230,Cinder cone,Radiocarbon,D7
0604-13=,Ndete Napu,Indonesia,Lesser Sunda Is,-8.72,121.78,750,Fumarole field,Fumarolic,Unknown
1503-05=,"Negra, Sierra",Ecuador,Galapagos,-0.83,-91.17,1490,Shield volcano,Historical,D1
1505-106,"Negrillar, El",Chile,Chile-N,-24.18,-68.25,3500,Pyroclastic cone,Holocene,Unknown
1505-109,"Negrillar, La",Chile,Chile-N,-24.28,-68.6,4109,Pyroclastic cone,Holocene,Unknown
1501-11=,"Negro de Mayasquer, Cerro",Ecuador,Colombia,0.828,-77.964,4445,Stratovolcano,Holocene,D2
1404-07=,"Negro, Cerro",Nicaragua,Nicaragua,12.506,-86.702,728,Cinder cone,Historical,D1
1404-092,Nejapa-Miraflores,Nicaragua,Nicaragua,12.12,-86.32,360,Fissure vent,Holocene,U
0900-32=,Nemo Peak,Russia,Kuril Is,49.57,154.808,1018,Caldera,Historical,D2
0103-02=,Nemrut Dagi,Turkey,Turkey,38.65,42.02,3050,Stratovolcano,Historical,D6
1505-125,"Nevada, Sierra",Argentina,Chile,-26.48,-68.58,6127,Complex volcano,Holocene,U
1600-04=,Nevis Peak,Netherlands,W Indies,17.15,-62.58,985,Stratovolcano,Holocene,U
1202-11-,Newberry Volcano,United States,US-Oregon,43.722,-121.229,2434,Shield volcano,Radiocarbon,D6
0509-01-,Newer Volcanics Prov,Australia,Australia,-37.77,142.5,1011,Shield volcano,Radiocarbon,D7
0204-04-,Ngaoundere Plateau,Cameroon,Africa-W,7.25,13.67,0,Volcanic field,Holocene,Unknown
0401-09=,Ngauruhoe,New Zealand,New Zealand,-39.158,175.63,2291,Stratovolcano,Historical,D1
0202-164,Ngozi,Tanzania,Africa-E,-8.97,33.57,2622,Caldera,Holocene,U
1504-008,"Nicholson, Cerro",Peru,Peru,-16.258,-71.753,2520,Cinder cone,Holocene,U
0605-02=,Nieuwerkerk,Pacific Ocean,Banda Sea,-6.6,124.675,-2285,Submarine volcano,Uncertain,Unknown
1806-011,Nightingale Island,United Kingdom,Atlantic-S,-37.417,-12.483,365,Stratovolcano,Historical,D1
0804-02=,Nii-jima,Japan,Izu Is-Japan,34.37,139.27,432,Lava dome,Historical,D6
0803-09=,Niigata-Yake-yama,Japan,Honshu-Japan,36.92,138.03,2400,Lava dome,Historical,D1
0804-132,Nikko,Japan,Volcano Is-Japan,23.075,142.308,-391,Submarine volcano,Uncertain,Unknown
0803-14=,Nikko-Shirane,Japan,Honshu-Japan,36.8,139.38,2578,Shield volcano,Historical,D3
0605-06=,Nila,Pacific Ocean,Banda Sea,-6.73,129.5,781,Stratovolcano,Historical,D1
0805-061,Nipesotsu-Upepesanke,Japan,Japan,43.45,143.03,2013,Lava dome,Historical,D3
0805-031,Niseko,Japan,Hokkaido-Japan,42.88,140.63,1154,Stratovolcano,Holocene,U
0804-096,Nishino-shima,Japan,Volcano Is-Japan,27.274,140.882,38,Caldera,Historical,D2
0102-05=,Nisyros,Greece,Greece,36.58,27.18,698,Stratovolcano,Historical,D3
0403-11=,Niuafo'ou,Tonga,Tonga-SW Pacific,-15.6,-175.63,260,Shield volcano,Historical,D1
0803-06=,Norikura,Japan,Honshu-Japan,36.12,137.55,3026,Stratovolcano,Radiocarbon,D7
1301-031,North Gorda Ridge,Pacific Ocean,Pacific-NE,42.667,-126.783,-3000,Submarine volcano,Historical,D2
1301-021,North Gorda Ridge,Pacific Ocean,Pacific-NE,42.67,-126.78,-3000,Submarine volcano,Historical,D1
0202-001,North Island,Kenya,Africa-E,4.07,36.05,520,Tuff cone,Holocene,U
1202-07-,North Sister Field,United States,US-Oregon,44.17,-121.77,3074,Complex volcano,Radiocarbon,D6
0507-081,North Vate,Vanuatu,Vanuatu-SW Pacific,-17.45,168.33,594,Stratovolcano,Holocene,U
1304-021,Northern EPR-Segment RO3,Pacific Ocean,Pacific-E,15.833,-105.433,-2300,Submarine volcano,Magnetism,D7
0303-012,Nosy-Be,Madagascar,Madagascar,-13.32,48.48,214,Cinder cone,Holocene,U
1102-18-,Novarupta,United States,Alaska Peninsula,58.27,-155.16,841,Caldera,Historical,D2
1505-036,Nuevo Mundo,Bolivia,Bolivia,-19.783,-66.483,5438,Lava domes,Holocene?,?
0803-151,Numazawa,Japan,Honshu-Japan,37.43,139.58,1100,Shield volcano,Radiocarbon,D7
1104-06-,Nunivak Island,United States,Alaska-W,60.02,-166.33,511,Shield volcano,Holocene,U
0202-056,Nyambeni Hills,Kenya,Africa-E,0.23,37.87,750,Shield volcano,Holocene,U
0203-02=,Nyamuragira,"Congo, DRC",Africa-C,-1.408,29.2,3058,Shield volcano,Historical,D1
0203-03=,Nyiragongo,"Congo, DRC",Africa-C,-1.52,29.25,3470,Stratovolcano,Historical,D1
0404-01=,Ofu-Olosega,United States,Samoa-SW Pacific,-14.175,-169.618,639,Shield volcano,Historical,D3
1505-13=,"Ojos del Salado, Nevados",Argentina,Chile-N,-27.12,-68.53,6887,Stratovolcano,Holocene,U
1002-06-,Oka Volc Field,Russia,Russia-SE,52.7,98.98,2077,Cinder cone,Holocene,U
0401-05=,Okataina,New Zealand,New Zealand,-38.12,176.5,1111,Lava dome,Historical,D1
0803-003,Oki-Dogo,Japan,Honshu-Japan,36.17,133.33,151,Shield volcano,Anthropology,U
1101-29-,Okmok,United States,Aleutian Is,53.42,-168.13,1073,Shield volcano,Historical,D1
0204-03-,Oku Volc Field,Cameroon,Africa-W,6.25,10.5,3011,Maar,Radiocarbon,D5
0202-055,Ol Kokwe,Kenya,Africa-E,0.63,36.08,1130,Shield volcano,Holocene,U
1505-05=,Olca-Paruma,Bolivia,Chile-N,-20.93,-68.48,5407,Stratovolcano,Historical,D3
0202-09=,Olkaria,Kenya,Africa-E,-0.904,36.292,2434,Pumice cone,Radiocarbon,D4
1000-055,Olkoviy,Russia,Kamchatka,52.077,157.477,636,Shield volcano,Holocene,U
1505-06=,Ollague,Bolivia,Chile-N,-21.3,-68.18,5868,Stratovolcano,Holocene,U
0100-03-,Olot Volc Field,Spain,Spain,42.17,2.53,893,Pyroclastic cone,Holocene,Unknown
0804-091,Omachi Seamount,Japan,Izu Is-Japan,29.22,140.8,-1700,Submarine volcano,Uncertain,Unknown
0803-142,Omanago Group,Japan,Honshu-Japan,36.78,139.5,2367,Lava dome,Holocene,U
0803-04=,On-take,Japan,Honshu-Japan,35.9,137.48,3063,Complex volcano,Historical,D1
1000-08=,Opala,Russia,Kamchatka,52.543,157.335,2475,Caldera,Radiocarbon,D6
1704-01=,Oraefajokull,Iceland,Iceland-SE,64,-16.65,2119,Stratovolcano,Historical,D4
1401-10=,"Orizaba, Pico de",Mexico,Mexico,19.03,-97.268,5675,Stratovolcano,Historical,D5
0302-14-,Ormus Islands,Indian Ocean,Arabia-S,26,57,0,Submarine volcano,Holocene,D2
1405-01=,Orosi,Costa Rica,Costa Rica,10.98,-85.473,1659,Stratovolcano,Uncertain,Unknown
0804-01=,Oshima,Japan,Izu Is-Japan,34.73,139.38,758,Stratovolcano,Historical,D1
0805-01=,Oshima-Oshima,Japan,Hokkaido-Japan,41.5,139.37,737,Stratovolcano,Historical,D4
0803-29=,Osore-yama,Japan,Honshu-Japan,41.32,141.08,879,Stratovolcano,Historical,D4
1508-01=,Osorno,Chile,Chile-S,-41.1,-72.493,2652,Stratovolcano,Historical,D3
1000-056,Ostanets,Russia,Kamchatka,52.146,157.322,719,Shield volcano,Holocene,U
1000-68-,Ostry,Russia,Kamchatka,58.18,160.82,2552,Stratovolcano,Holocene,U
1000-057,Otdelniy,Russia,Kamchatka,52.22,157.428,791,Shield volcano,Holocene,U
1505-097,"Overo, Cerro",Chile,Chile-N,-23.35,-67.67,4555,Maar,Holocene,U
1000-051,Ozernoy,Russia,Kamchatka,51.88,157.38,562,Shield volcano,Holocene,U
1402-11=,Pacaya,Guatemala,Guatemala,14.381,-90.601,2552,Complex volcano,Historical,D1
0701-09-,Paco,Philippines,Mindanao-Philippines,9.593,125.52,524,Stratovolcano,Anthropology,U
0804-17=,Pagan,United States,Mariana Is-C Pacific,18.13,145.8,570,Stratovolcano,Historical,D1
0502-08=,Pago,Papua New Guinea,New Britain-SW Pac,-5.58,150.52,742,Caldera,Historical,D2
0202-053,Paka,Kenya,Africa-E,0.92,36.18,1697,Shield volcano,Ar/Ar,D7
1508-08-,Palei-Aike Volc Field,Chile,Chile-S,-52,-70,250,Cinder cone,Anthropology,D7
1508-052,Palena Volc Group,Chile,Chile-S,-43.68,-72.5,0,Cinder cone,Holocene,U
0101-031,Palinuro,Italy,Italy,39.483,14.833,-70,Submarine volcano,Radiocarbon,D7
1507-022,Palomo,Chile,Chile-C,-34.608,-70.295,4860,Stratovolcano,Holocene,U
0604-15=,Paluweh,Indonesia,Lesser Sunda Is,-8.32,121.708,875,Stratovolcano,Historical,D1
1505-042,Pampa Luxsar,Bolivia,Bolivia,-20.85,-68.2,5543,Volcanic field,Holocene,U
0101-071,Pantelleria,Italy,Italy,36.77,12.02,836,Shield volcano,Historical,D3
1507-152,"Pantoja, Cerro",Chile,Chile-C,-40.77,-71.95,2112,Stratovolcano,Holocene,U
0603-10=,Papandayan,Indonesia,Java,-7.32,107.73,2665,Stratovolcano,Historical,D2
1401-081,Papayo,Mexico,Mexico,19.308,-98.7,3600,Lava dome,Holocene,U
1401-05=,Paricutin Volcanic Field,Mexico,Mexico,19.48,-102.25,3860,Cinder cone,Historical,D2
0701-011,Parker,Philippines,Mindanao-Philippines,6.12,124.892,1824,Stratovolcano,Historical,D5
0601-231,Patah,Indonesia,Sumatra,-4.27,103.3,2817,Unknown,Uncertain,Unknown
1600-11=,"Patates, Morne",Dominica,W Indies,15.22,-61.37,960,Stratovolcano,Radiocarbon,D5
1505-012,Patilla Pata,Bolivia,Bolivia,-18.05,-69.03,5300,Stratovolcano,Holocene,Unknown
0703-087,Patoc,Philippines,Luzon-Philippines,17.147,120.98,1865,Stratovolcano,Fumarolic,U
0603-07=,Patuha,Indonesia,Java,-7.15,107.37,2434,Stratovolcano,Holocene,U
1900-041,Paulet,Antarctica,Antarctica,-63.58,-55.77,353,Cinder cone,Holocene,U
1102-03-,Pavlof,United States,Alaska Peninsula,55.42,-161.9,2519,Stratovolcano,Historical,D1
1102-04-,Pavlof Sister,United States,Alaska Peninsula,55.45,-161.87,2142,Stratovolcano,Historical,D4
1507-066,"Payun Matru, Cerro",Argentina,Argentina,-36.42,-69.2,3691,Shield volcano,Holocene,U
1505-20-,Peinado,Argentina,Argentina,-26.617,-68.15,5740,Stratovolcano,Holocene,U
1600-12=,Pelee,Martinique,W Indies,14.82,-61.17,1397,Stratovolcano,Historical,D2
0603-291,Penanggungan,Indonesia,Java,-7.62,112.63,1653,Stratovolcano,Holocene,U
0601-191,Pendan,Indonesia,Sumatra,-2.82,102.02,0,Unknown,Holocene,U
1900-031,Penguin Island,Antarctica,Antarctica,-62.1,-57.93,180,Stratovolcano,Lichenometry,D2
0603-04=,Perbakti,Indonesia,Java,-6.75,106.68,1699,Stratovolcano,Fumarolic,U
1501-062,Petacas,Colombia,Colombia,1.57,-76.78,4054,Lava dome,Holocene,Unknown
1900-029,Peter I Island,Antarctica,Antarctica,-68.85,-90.58,1640,Shield volcano,Holocene,U
0601-03=,Peuet Sague,Indonesia,Sumatra,4.914,96.329,2801,Complex volcano,Historical,D1
1802-02=,Pico,Portugal,Azores,38.47,-28.4,2351,Stratovolcano,Historical,D4
1000-271,Piip,Russia,Kamchatka-E of,55.42,167.33,-300,Submarine volcano,Tephrochronology,D7
1404-08=,"Pilas, Las",Nicaragua,Nicaragua,12.495,-86.688,1088,Complex volcano,Historical,D2
1505-032,"Pina, Cerro",Chile,Chile-N,-19.492,-68.65,4037,Unknown,Holocene,Unknown
1401-001,Pinacate,Mexico,Mexico,31.772,-113.498,1200,Cinder cone,Holocene,U
0703-083,Pinatubo,Philippines,Luzon-Philippines,15.13,120.35,1486,Stratovolcano,Historical,D1
1503-07=,Pinta,Ecuador,Galapagos,0.58,-90.75,780,Shield volcano,Historical,D2
1600-21-,Piparo,Trinidad,Trinidad,10,-61,140,Mud volcano,Historical,D1
1000-054,Piratkovsky,Russia,Kamchatka,52.113,157.849,1322,Stratovolcano,Holocene,U
1507-04=,Planchon-Peteroa,Chile,Chile-C,-35.24,-70.57,4107,Caldera,Historical,D1
1405-034,Platanar,Costa Rica,Costa Rica,10.3,-84.366,2267,Stratovolcano,Holocene,U
1900-013,"Pleiades, The",Antarctica,Antarctica,-72.67,165.5,3040,Stratovolcano,K-Ar,D7
1000-63-,Plosky,Russia,Kamchatka,57.83,160.25,1255,Shield volcano,Holocene,U
1000-31-,Plosky,Russia,Kamchatka,55.2,158.47,1236,Shield volcano,Holocene,U
1000-052,Plosky Volc Group,Russia,Kamchatka,52.02,157.53,681,Volcanic field,Holocene,U
1405-04=,Poas,Costa Rica,Costa Rica,10.2,-84.233,2708,Stratovolcano,Historical,D1
0703-02=,Pocdol Mountains,Philippines,Luzon-Philippines,13.05,123.958,1102,Compound volcano,Holocene,U
0604-07=,Poco Leok,Indonesia,Lesser Sunda Is,-8.68,120.48,1675,Unknown,Fumarolic,U
1000-47-,Pogranychny,Russia,Kamchatka,56.85,159.8,1427,Shield volcano,Holocene,U
0705-08-,Popa,Myanmar,SE Asia,20.87,95.23,1518,Stratovolcano,Anthropology,D7
1401-09=,Popocatepetl,Mexico,Mexico,19.023,-98.622,5426,Stratovolcano,Historical,D1
0104-09-,Porak,Armenia,Armenia,40.017,45.783,2800,Stratovolcano,Anthropology,D7
0304-04-,"Possession, Ile de la",Indian Ocean,Indian O-S,-46.42,51.63,934,Stratovolcano,Holocene,U
1701-07=,Prestahnukur,Iceland,Iceland-SW,64.6,-20.58,1390,Subglacial volcano,Radiocarbon,D7
0900-19=,Prevo Peak,Russia,Kuril Is,47.02,152.12,1360,Stratovolcano,Historical,D3
1401-00-,"Prieto, Cerro",Mexico,Mexico,32.418,-115.305,223,Lava dome,Holocene,Unknown
0304-06-,Prince Edward Island,Indian Ocean,Indian O-S,-46.63,37.95,672,Shield volcano,Holocene,U
1900-14-,Protector Shoal,Antarctica,Antarctica,-55.92,-28.08,-27,Submarine volcano,Historical,D2
1507-072,Puesto Cortaderas,Argentina,Argentina,-37.55,-69.62,970,Pyroclastic cone,Holocene,U
1507-073,Puesto Cortaderas,Argentina,Argentina,-37.567,-69.617,970,Pyroclastic cone,Holocene,U
1505-105,Pular,Chile,Chile-N,-24.18,-68.05,6233,Stratovolcano,Holocene,U
1502-011,Pululagua,Ecuador,Ecuador,0.038,-78.463,3356,Caldera,Radiocarbon,D7
1507-16-,Puntiagudo-Cordon Cenizo,Chile,Chile-C,-40.969,-72.264,2493,Stratovolcano,Historical,D3
1501-06=,Purace,Colombia,Colombia,2.32,-76.4,4650,Stratovolcano,Historical,D1
1505-094,Purico Complex,Chile,Chile-N,-23,-67.75,5703,Pyroclastic shield,Holocene,U
1505-09=,Putana,Chile,Chile-N,-22.57,-67.87,5890,Stratovolcano,Historical,D1
1507-15=,Puyehue,Chile,Chile-C,-40.59,-72.117,2236,Stratovolcano,Holocene,U
1508-054,Puyuhuapi,Chile,Chile-S,-44.3,-72.53,255,Cinder cone,Holocene,U
0302-02-,Qal'eh Hasan Ali,Iran,Iran,29.4,57.57,0,Maar,Holocene,Unknown
1600-14=,Qualibou,St. Lucia,W Indies,13.83,-61.05,777,Caldera,Historical,D4
1507-121,Quetrupillan,Chile,Chile-C,-39.5,-71.7,2360,Caldera,Historical,D3
1402-21-,Quezaltepeque,Guatemala,Guatemala,14.65,-89.35,1200,Volcanic field,Holocene,U
1600-02=,"Quill, The",Netherlands,W Indies,17.48,-62.95,601,Stratovolcano,Radiocarbon,D6
1502-06=,Quilotoa,Ecuador,Ecuador,-0.85,-78.9,3914,Caldera,Radiocarbon,D6
1504-004,Quimsachata,Peru,Peru,-14.37,-71.17,3923,Lava dome,Holocene,U
0502-14=,Rabaul,Papua New Guinea,New Britain-SW Pac,-4.271,152.203,688,Pyroclastic shield,Historical,D1
0701-06=,Ragang,Philippines,Mindanao-Philippines,7.67,124.5,2815,Stratovolcano,Historical,D2
0301-01=,"Rahah, Harrat ar",Saudi Arabia,Arabia-W,27.8,36.17,1660,Volcanic field,Anthropology,U
0301-07=,"Rahat, Harrat",Saudi Arabia,Arabia-W,23.08,39.78,1744,Volcanic field,Historical,D6
0900-25=,Raikoke,Russia,Kuril Is,48.292,153.25,551,Stratovolcano,Historical,D2
1201-03-,Rainier,United States,US-Washington,46.87,-121.758,4392,Stratovolcano,Dendrochronology,D3
0601-29=,Rajabasa,Indonesia,Sumatra,-5.78,105.625,1281,Stratovolcano,Fumarolic,U
0604-071,Ranakah,Indonesia,Lesser Sunda Is,-8.62,120.52,2100,Lava dome,Historical,D1
0601-251,Ranau,Indonesia,Sumatra,-4.83,103.92,1881,Caldera,Holocene,Unknown
0402-03=,Raoul Island,New Zealand,Kermadec Is,-29.27,-177.92,516,Stratovolcano,Historical,D1
0900-22=,Rasshua,Russia,Kuril Is,47.77,153.02,956,Stratovolcano,Historical,D2
0603-34=,Raung,Indonesia,Java,-8.125,114.042,3332,Stratovolcano,Historical,D1
0805-082,Rausu,Japan,Hokkaido-Japan,44.073,145.125,1660,Stratovolcano,Tephrochronology,D3
1101-28-,Recheschnoi,United States,Aleutian Is,53.15,-168.55,1984,Stratovolcano,Holocene,U
1508-063,Reclus,Chile,Chile-S,-50.98,-73.7,0,Stratovolcano,Radiocarbon,D7
1203-15-,Red Cones,United States,US-California,37.58,-119.05,2748,Cinder cone,Holocene,U
1103-03-,Redoubt,United States,Alaska-SW,60.48,-152.75,3108,Stratovolcano,Historical,D1
0401-06-,Reporoa,New Zealand,New Zealand,-38.42,176.33,592,Caldera,Tephrochronology,D6
1507-065,"Resago, Volcan",Chile,Chile-C,-36.45,-70.92,1550,Cinder cone,Holocene,U
1502-01=,Reventador,Ecuador,Ecuador,-0.078,-77.656,3562,Stratovolcano,Historical,D1
1701-02=,Reykjanes,Iceland,Iceland-SW,63.88,-22.5,230,Crater rows,Historical,D6
1701-01=,Reykjaneshryggur,Iceland,Iceland-SW,63.67,-23.33,80,Submarine volcanoes,Historical,D1
1405-02=,Rincon de la Vieja,Costa Rica,Costa Rica,10.83,-85.324,1916,Complex volcano,Historical,D1
0604-03=,Rinjani,Indonesia,Lesser Sunda Is,-8.42,116.47,3726,Stratovolcano,Historical,D1
1507-024,Risco Plateado,Argentina,Argentina,-34.933,-70,4999,Stratovolcano,Holocene?,?
0805-041,Rishiri,Japan,Hokkaido-Japan,45.18,141.25,1719,Stratovolcano,Radiocarbon,D7
0501-07=,Ritter Island,Papua New Guinea,New Guinea-NE of,-5.52,148.121,140,Stratovolcano,Historical,D1
1506-02=,Robinson Crusoe,Chile,Chile-Is,-33.658,-78.85,922,Shield volcano,Historical,D3
1505-21-,Robledo,Argentina,Argentina,-26.767,-67.717,4400,Caldera,Holocene,U
1303-04-,Rocard,France,Society Is-C Pacific,-17.642,-148.6,-2100,Submarine volcano,Seismicity,U
1000-34-,Romanovka,Russia,Kamchatka,55.65,158.8,1442,Stratovolcano,Holocene,U
1404-06-,Rota,Nicaragua,Nicaragua,12.55,-86.75,832,Stratovolcano,Holocene,U
1101-38-,Roundtop,United States,Aleutian Is,54.8,-163.6,1871,Stratovolcano,Holocene,U
1900-021,Royal Society Range,Antarctica,Antarctica,-78.25,163.6,3000,Cinder cone,Holocene,Unknown
0607-01=,Ruang,Indonesia,Sangihe Is-Indonesia,2.28,125.425,725,Stratovolcano,Historical,D2
0401-10=,Ruapehu,New Zealand,New Zealand,-39.28,175.57,2797,Stratovolcano,Historical,D1
0804-202,Ruby,United States,Mariana Is-C Pacific,15.617,145.567,-230,Submarine volcano,Historical,D2
0804-201,Ruby,United States,Mariana Is-C Pacific,15.62,145.57,-230,Submarine volcano,Historical,D1
1200-03-,Ruby Mountain,Canada,Canada,59.68,-133.32,1523,Cinder cone,Historical,D3
0900-112,Rudakov,Russia,Kuril Is,45.88,149.83,542,Stratovolcano,Holocene,Unknown
1501-02=,Ruiz,Colombia,Colombia,4.895,-75.322,5321,Stratovolcano,Historical,D1
0401-131,Rumble II West,New Zealand,New Zealand,-35.353,178.527,1200,Submarine volcano,Fumarolic,U
0401-13-,Rumble III,New Zealand,New Zealand,-35.745,178.478,-140,Submarine volcano,Hydrophonic,D1
0401-12-,Rumble IV,New Zealand,New Zealand,-36.13,178.05,-450,Submarine volcano,Fumarolic,U
0401-11-,Rumble V,New Zealand,New Zealand,-36.139,178.197,-700,Submarine volcano,Fumarolic,U
0202-166,Rungwe,Tanzania,Africa-E,-9.13,33.67,2961,Stratovolcano,Holocene,U
1508-058,Río Murta,Chile,Chile-S,-46.167,-72.667,,Pyroclastic cones,Holocene?,?
0202-163,SW Usangu Basin,Tanzania,Africa-E,-8.75,33.8,2179,Lava dome,Holocene,U
1600-01=,Saba,Netherlands,W Indies,17.63,-63.23,887,Stratovolcano,Historical,D5
0302-002,Sabalan,Iran,Iran,38.25,47.917,4811,Stratovolcano,Holocene,U
1504-003,Sabancaya,Peru,Peru,-15.78,-71.85,5967,Stratovolcano,Historical,D1
1504-006,Sabancaya,Peru,Peru,-15.783,-71.85,5967,Stratovolcanoes,Historical,D1
0302-001,Sahand,Iran,Iran,37.75,46.433,3707,Stratovolcano,Holocene,U
1505-091,Sairecabur,Bolivia,Chile-N,-22.73,-67.88,5971,Stratovolcano,Holocene,U
0501-08=,Sakar,Papua New Guinea,New Guinea-NE of,-5.414,148.094,992,Stratovolcano,Holocene,Unknown
0802-08=,Sakura-jima,Japan,Kyushu-Japan,31.58,130.67,1117,Stratovolcano,Historical,D1
0603-05=,Salak,Indonesia,Java,-6.72,106.73,2211,Stratovolcano,Historical,D2
1401-007,San Borja Volc Field,Mexico,Mexico,28.5,-113.75,1360,Cinder cone,Holocene,U
0204-002,San Carlos,Equatorial Guinea,Africa-W,3.35,8.52,2260,Shield volcano,Holocene,U
1503-12-,San Cristobal,Ecuador,Galapagos,-0.88,-89.5,759,Shield volcano,Holocene,U
1404-02=,San Cristobal,Nicaragua,Nicaragua,12.702,-87.004,1745,Stratovolcano,Historical,D1
1403-001,San Diego,El Salvador,El Salvador,14.27,-89.48,781,Volcanic field,Holocene,U
1506-01=,San Felix,Chile,Chile-Is,-26.27,-80.12,183,Shield volcano,Holocene,U
0204-003,San Joaquin,Equatorial Guinea,Africa-W,3.35,8.63,2009,Shield volcano,Holocene,U
1802-03=,San Jorge,Portugal,Azores,38.65,-28.08,1053,Fissure vent,Historical,D2
1507-02=,San Jose,Argentina,Chile-C,-33.782,-69.897,5856,Stratovolcano,Historical,D2
1401-003,"San Luis, Isla",Mexico,Mexico,29.814,-114.384,180,Tuff cone,Holocene,U
1403-04=,San Marcelino,El Salvador,El Salvador,13.853,-89.63,2381,Stratovolcano,Historical,D2
1401-11=,San Martin,Mexico,Mexico,18.572,-95.169,1650,Shield volcano,Historical,D4
1403-10=,San Miguel,El Salvador,El Salvador,13.431,-88.272,2130,Stratovolcano,Historical,D1
1505-07=,San Pedro,Chile,Chile-N,-21.88,-68.4,6145,Stratovolcano,Historical,D2
1507-062,San Pedro-Pellado,Chile,Chile-C,-35.989,-70.849,3621,Stratovolcano,Holocene,U
1401-002,San Quintin Volc Field,Mexico,Mexico,30.468,-115.996,260,Cinder cone,Holocene,U
1403-05=,San Salvador,El Salvador,El Salvador,13.736,-89.286,1893,Stratovolcano,Historical,D2
1403-07=,San Vicente,El Salvador,El Salvador,13.623,-88.852,2182,Stratovolcano,Holocene,U
0803-002,Sanbe,Japan,Honshu-Japan,35.13,132.62,1126,Caldera,Radiocarbon,D7
1202-04-,Sand Mountain Field,United States,US-Oregon,44.38,-121.93,1664,Cinder cone,Radiocarbon,D7
1105-01-,Sanford,United States,Alaska-E,62.22,-144.13,4949,Shield volcano,Holocene,Unknown
1401-023,Sanganguey,Mexico,Mexico,21.45,-104.73,2340,Stratovolcano,Holocene,U
1401-024,Sangangüey,Mexico,Mexico,21.45,-104.733,2340,Stratovolcano,Holocene,U
1502-09=,Sangay,Ecuador,Ecuador,-2.03,-78.33,5230,Stratovolcano,Historical,D1
0604-05=,Sangeang Api,Indonesia,Lesser Sunda Is,-8.18,119.058,1949,Complex volcano,Historical,D1
0604-06=,"Sano, Wai",Indonesia,Lesser Sunda Is,-8.68,120.025,903,Caldera,Holocene,U
1403-02=,Santa Ana,El Salvador,El Salvador,13.853,-89.63,2365,Stratovolcano,Historical,D2
1207-01-,Santa Clara,United States,US-Utah,37.257,-113.625,1465,Volcanic field,Holocene,U
1503-091,Santa Cruz,Ecuador,Galapagos,-0.62,-90.33,864,Shield volcano,Holocene,U
0204-004,Santa Isabel,Equatorial Guinea,Africa-W,3.58,8.75,2972,Shield volcano,Historical,D2
1501-021,Santa Isabel,Colombia,Colombia,4.82,-75.37,4950,Shield volcano,Radiocarbon,D7
1402-03=,Santa Maria,Guatemala,Guatemala,14.756,-91.552,3772,Stratovolcano,Historical,D1
1503-09=,Santiago,Ecuador,Galapagos,-0.22,-90.77,920,Shield volcano,Historical,D2
1402-16-,"Santiago, Cerro",Guatemala,Guatemala,14.33,-89.87,1192,Volcanic field,Holocene,U
1804-03-,Santo Antao,Cape Verde,Cape Verde Is,17.07,-25.17,1979,Stratovolcano,Holocene,U
0703-086,Santo Tomas,Philippines,Luzon-Philippines,16.33,120.55,2260,Stratovolcano,Uncertain,Unknown
0102-04=,Santorini,Greece,Greece,36.404,25.396,329,Shield volcano,Historical,D2
0204-001,Sao Tome,Sao Tome & Principe,Africa-W,0.32,6.72,2024,Shield volcano,Holocene,Unknown
0804-192,Sarigan,United States,Mariana Is-C Pacific,16.708,145.783,538,Stratovolcano,Holocene,U
0804-191,Sarigan,United States,Mariana Is-C Pacific,16.708,145.78,538,Stratovolcano,Holocene,U
